{"type":"FeatureCollection","features":[{"type":"Feature","geometry":{"type":"Point","coordinates":[-78.995756,35.953543]},"properties":{"title":"Subway","marker-color":"#3698d4","marker-size":"large","marker-symbol":"restaurant"}},{"type":"Feature","geometry":{"type":"Point","coordinates":[-78.902503,36.002041]},"properties":{"title":"Durham Athletic Park","marker-color":"#3698d4","marker-size":"large","marker-symbol":"restaurant"}},{"type":"Feature","geometry":{"type":"Point","coordinates":[-78.813771,35.992176]},"properties":{"title":"Whippoorwill Conc Yount Athletic Assoc","marker-color":"#3698d4","marker-size":"large","marker-symbol":"restaurant"}},{"type":"Feature","geometry":{"type":"Point","coordinates":[-78.929029,36.057967]},"properties":{"title":"Jimmys D's","marker-color":"#3698d4","marker-size":"large","marker-symbol":"restaurant"}},{"type":"Feature","geometry":{"type":"Point","coordinates":[-78.879547,35.891884]},"properties":{"title":"Niehs Cafeteria","marker-color":"#3698d4","marker-size":"large","marker-symbol":"restaurant"}},{"type":"Feature","geometry":{"type":"Point","coordinates":[-78.879544,35.892183]},"properties":{"title":"Niehs Cafeteria South","marker-color":"#3698d4","marker-size":"large","marker-symbol":"restaurant"}},{"type":"Feature","geometry":{"type":"Point","coordinates":[-78.939559,36.004303]},"properties":{"title":"Epa Annex  Service America","marker-color":"#3698d4","marker-size":"large","marker-symbol":"restaurant"}},{"type":"Feature","geometry":{"type":"Point","coordinates":[-78.926502,35.98719]},"properties":{"title":"T J Hoops","marker-color":"#3698d4","marker-size":"large","marker-symbol":"restaurant"}},{"type":"Feature","geometry":{"type":"Point","coordinates":[-78.897983,35.995875]},"properties":{"title":"P.D. Quix","marker-color":"#3698d4","marker-size":"large","marker-symbol":"restaurant"}},{"type":"Feature","geometry":{"type":"Point","coordinates":[-78.926502,35.98719]},"properties":{"title":"Sicilian Delight","marker-color":"#3698d4","marker-size":"large","marker-symbol":"restaurant"}},{"type":"Feature","geometry":{"type":"Point","coordinates":[-78.901658,35.998148]},"properties":{"title":"Pinnacles","marker-color":"#3698d4","marker-size":"large","marker-symbol":"restaurant"}},{"type":"Feature","geometry":{"type":"Point","coordinates":[-78.877699,35.982908]},"properties":{"title":"Nanny \u0026 Papa's","marker-color":"#3698d4","marker-size":"large","marker-symbol":"restaurant"}},{"type":"Feature","geometry":{"type":"Point","coordinates":[-78.893007,35.910632]},"properties":{"title":"Laff'n Luigi's","marker-color":"#3698d4","marker-size":"large","marker-symbol":"restaurant"}},{"type":"Feature","geometry":{"type":"Point","coordinates":[-78.929144,36.057449]},"properties":{"title":"Dave's Dairy Bar","marker-color":"#3698d4","marker-size":"large","marker-symbol":"restaurant"}},{"type":"Feature","geometry":{"type":"Point","coordinates":[-78.897983,35.995875]},"properties":{"title":"Miami Pizza","marker-color":"#3698d4","marker-size":"large","marker-symbol":"restaurant"}},{"type":"Feature","geometry":{"type":"Point","coordinates":[-78.897944,35.99924]},"properties":{"title":"Rhf Lunch","marker-color":"#3698d4","marker-size":"large","marker-symbol":"restaurant"}},{"type":"Feature","geometry":{"type":"Point","coordinates":[-78.942958,36.008871]},"properties":{"title":"Subway","marker-color":"#3698d4","marker-size":"large","marker-symbol":"restaurant"}},{"type":"Feature","geometry":{"type":"Point","coordinates":[-78.944036,35.96745]},"properties":{"title":"Comp U Chem","marker-color":"#3698d4","marker-size":"large","marker-symbol":"restaurant"}},{"type":"Feature","geometry":{"type":"Point","coordinates":[-78.90043,35.977922]},"properties":{"title":"Know Delicatessen","marker-color":"#3698d4","marker-size":"large","marker-symbol":"restaurant"}},{"type":"Feature","geometry":{"type":"Point","coordinates":[-78.883365,35.974353]},"properties":{"title":"Durham Exchange Club Cafeteria","marker-color":"#3698d4","marker-size":"large","marker-symbol":"restaurant"}},{"type":"Feature","geometry":{"type":"Point","coordinates":[-78.878578,36.205828]},"properties":{"title":"Rougemont Diner","marker-color":"#3698d4","marker-size":"large","marker-symbol":"restaurant"}},{"type":"Feature","geometry":{"type":"Point","coordinates":[-78.893046,35.90161]},"properties":{"title":"Sal's Pizza","marker-color":"#3698d4","marker-size":"large","marker-symbol":"restaurant"}},{"type":"Feature","geometry":{"type":"Point","coordinates":[-78.93575,36.033267]},"properties":{"title":"Sassys #2","marker-color":"#3698d4","marker-size":"large","marker-symbol":"restaurant"}},{"type":"Feature","geometry":{"type":"Point","coordinates":[-82.528399,35.564537]},"properties":{"title":"Sumans Indian Restuarant","marker-color":"#3698d4","marker-size":"large","marker-symbol":"restaurant"}},{"type":"Feature","geometry":{"type":"Point","coordinates":[-78.895257,35.90251]},"properties":{"title":"Arbys  6052","marker-color":"#3698d4","marker-size":"large","marker-symbol":"restaurant"}},{"type":"Feature","geometry":{"type":"Point","coordinates":[-78.919329,36.015652]},"properties":{"title":"Flipper's Bar \u0026 Grill","marker-color":"#3698d4","marker-size":"large","marker-symbol":"restaurant"}},{"type":"Feature","geometry":{"type":"Point","coordinates":[-78.889848,36.018437]},"properties":{"title":"Winners Cup","marker-color":"#3698d4","marker-size":"large","marker-symbol":"restaurant"}},{"type":"Feature","geometry":{"type":"Point","coordinates":[-78.945802,35.967227]},"properties":{"title":"Lone Star Steakhouse #6108","marker-color":"#3698d4","marker-size":"large","marker-symbol":"restaurant"}},{"type":"Feature","geometry":{"type":"Point","coordinates":[-78.900044,36.000928]},"properties":{"title":"Liberty Grill","marker-color":"#3698d4","marker-size":"large","marker-symbol":"restaurant"}},{"type":"Feature","geometry":{"type":"Point","coordinates":[-78.910382,36.000651]},"properties":{"title":"Steak \u0026 Eggs","marker-color":"#3698d4","marker-size":"large","marker-symbol":"restaurant"}},{"type":"Feature","geometry":{"type":"Point","coordinates":[-78.904495,36.053316]},"properties":{"title":"Taco Bell #1833","marker-color":"#3698d4","marker-size":"large","marker-symbol":"restaurant"}},{"type":"Feature","geometry":{"type":"Point","coordinates":[-78.981679,36.032667]},"properties":{"title":"J C's Family Restaurant","marker-color":"#3698d4","marker-size":"large","marker-symbol":"restaurant"}},{"type":"Feature","geometry":{"type":"Point","coordinates":[-78.857323,35.9009]},"properties":{"title":"Underwriters Laboratories","marker-color":"#3698d4","marker-size":"large","marker-symbol":"restaurant"}},{"type":"Feature","geometry":{"type":"Point","coordinates":[-78.907985,36.070012]},"properties":{"title":"Golden Dragon","marker-color":"#3698d4","marker-size":"large","marker-symbol":"restaurant"}},{"type":"Feature","geometry":{"type":"Point","coordinates":[-78.895784,36.01268]},"properties":{"title":"Wendy's #1161869","marker-color":"#3698d4","marker-size":"large","marker-symbol":"restaurant"}},{"type":"Feature","geometry":{"type":"Point","coordinates":[-78.929209,36.033443]},"properties":{"title":"Hong Kong Restaurant","marker-color":"#3698d4","marker-size":"large","marker-symbol":"restaurant"}},{"type":"Feature","geometry":{"type":"Point","coordinates":[-78.8938,35.90812]},"properties":{"title":"Waffle House #556","marker-color":"#3698d4","marker-size":"large","marker-symbol":"restaurant"}},{"type":"Feature","geometry":{"type":"Point","coordinates":[-78.900195,35.978597]},"properties":{"title":"Royal Home Fashions (Ara Services)","marker-color":"#3698d4","marker-size":"large","marker-symbol":"restaurant"}},{"type":"Feature","geometry":{"type":"Point","coordinates":[-78.891641,35.915216]},"properties":{"title":"Ray's Elbow Room","marker-color":"#3698d4","marker-size":"large","marker-symbol":"restaurant"}},{"type":"Feature","geometry":{"type":"Point","coordinates":[-78.897983,35.995875]},"properties":{"title":"Western Sizzlin","marker-color":"#3698d4","marker-size":"large","marker-symbol":"restaurant"}},{"type":"Feature","geometry":{"type":"Point","coordinates":[-78.893046,35.90161]},"properties":{"title":"Yamazushi","marker-color":"#3698d4","marker-size":"large","marker-symbol":"restaurant"}},{"type":"Feature","geometry":{"type":"Point","coordinates":[-78.910974,36.084066]},"properties":{"title":"Subway","marker-color":"#3698d4","marker-size":"large","marker-symbol":"restaurant"}},{"type":"Feature","geometry":{"type":"Point","coordinates":[-78.8241,35.982071]},"properties":{"title":"Rick Shaw Express","marker-color":"#3698d4","marker-size":"large","marker-symbol":"restaurant"}},{"type":"Feature","geometry":{"type":"Point","coordinates":[-78.845498,35.962842]},"properties":{"title":"Roses Snack Bar","marker-color":"#3698d4","marker-size":"large","marker-symbol":"restaurant"}},{"type":"Feature","geometry":{"type":"Point","coordinates":[-78.897983,35.995875]},"properties":{"title":"House Of Pizza Restaurant","marker-color":"#3698d4","marker-size":"large","marker-symbol":"restaurant"}},{"type":"Feature","geometry":{"type":"Point","coordinates":[-78.867686,35.991041]},"properties":{"title":"Mcdonald's (Village) #4320","marker-color":"#3698d4","marker-size":"large","marker-symbol":"restaurant"}},{"type":"Feature","geometry":{"type":"Point","coordinates":[-78.944982,35.937702]},"properties":{"title":"Mcdonald's","marker-color":"#3698d4","marker-size":"large","marker-symbol":"restaurant"}},{"type":"Feature","geometry":{"type":"Point","coordinates":[-78.846845,35.965607]},"properties":{"title":"Mcdonald's Of Wellons Village","marker-color":"#3698d4","marker-size":"large","marker-symbol":"restaurant"}},{"type":"Feature","geometry":{"type":"Point","coordinates":[-78.896306,35.991448]},"properties":{"title":"City Market Cafe","marker-color":"#3698d4","marker-size":"large","marker-symbol":"restaurant"}},{"type":"Feature","geometry":{"type":"Point","coordinates":[-78.945397,35.967183]},"properties":{"title":"Deli Dog","marker-color":"#3698d4","marker-size":"large","marker-symbol":"restaurant"}},{"type":"Feature","geometry":{"type":"Point","coordinates":[-78.895612,35.901881]},"properties":{"title":"Fontana's Restaurant","marker-color":"#3698d4","marker-size":"large","marker-symbol":"restaurant"}},{"type":"Feature","geometry":{"type":"Point","coordinates":[-78.900343,35.99565]},"properties":{"title":"Paschall's Grill","marker-color":"#3698d4","marker-size":"large","marker-symbol":"restaurant"}},{"type":"Feature","geometry":{"type":"Point","coordinates":[-78.82155,35.858278]},"properties":{"title":"Quintilas Corp","marker-color":"#3698d4","marker-size":"large","marker-symbol":"restaurant"}},{"type":"Feature","geometry":{"type":"Point","coordinates":[-78.880057,35.980469]},"properties":{"title":"Mariott Rtp","marker-color":"#3698d4","marker-size":"large","marker-symbol":"restaurant"}},{"type":"Feature","geometry":{"type":"Point","coordinates":[-78.893573,36.03573]},"properties":{"title":"Subway","marker-color":"#3698d4","marker-size":"large","marker-symbol":"restaurant"}},{"type":"Feature","geometry":{"type":"Point","coordinates":[-78.908325,35.999309]},"properties":{"title":"Fowlers","marker-color":"#3698d4","marker-size":"large","marker-symbol":"restaurant"}},{"type":"Feature","geometry":{"type":"Point","coordinates":[-78.905819,36.049478]},"properties":{"title":"Jersey Mike's","marker-color":"#3698d4","marker-size":"large","marker-symbol":"restaurant"}},{"type":"Feature","geometry":{"type":"Point","coordinates":[-78.912761,35.960856]},"properties":{"title":"Glaxo Smith Kline South","marker-color":"#3698d4","marker-size":"large","marker-symbol":"restaurant"}},{"type":"Feature","geometry":{"type":"Point","coordinates":[-78.926502,35.98719]},"properties":{"title":"Seafood Delight","marker-color":"#3698d4","marker-size":"large","marker-symbol":"restaurant"}},{"type":"Feature","geometry":{"type":"Point","coordinates":[-78.925403,35.98815]},"properties":{"title":"Latino","marker-color":"#3698d4","marker-size":"large","marker-symbol":"restaurant"}},{"type":"Feature","geometry":{"type":"Point","coordinates":[-78.928507,35.97443]},"properties":{"title":"Red Zen","marker-color":"#3698d4","marker-size":"large","marker-symbol":"restaurant"}},{"type":"Feature","geometry":{"type":"Point","coordinates":[-78.899124,35.984673]},"properties":{"title":"Uptown Seafood","marker-color":"#3698d4","marker-size":"large","marker-symbol":"restaurant"}},{"type":"Feature","geometry":{"type":"Point","coordinates":[-78.896257,35.890368]},"properties":{"title":"Thai Tana","marker-color":"#3698d4","marker-size":"large","marker-symbol":"restaurant"}},{"type":"Feature","geometry":{"type":"Point","coordinates":[-78.905087,35.980329]},"properties":{"title":"Four Way Store And Grill","marker-color":"#3698d4","marker-size":"large","marker-symbol":"restaurant"}},{"type":"Feature","geometry":{"type":"Point","coordinates":[-78.957662,35.96083]},"properties":{"title":"Fuddruckers","marker-color":"#3698d4","marker-size":"large","marker-symbol":"restaurant"}},{"type":"Feature","geometry":{"type":"Point","coordinates":[-78.959415,35.963744]},"properties":{"title":"Jersey Mikes","marker-color":"#3698d4","marker-size":"large","marker-symbol":"restaurant"}},{"type":"Feature","geometry":{"type":"Point","coordinates":[-78.939689,35.90189]},"properties":{"title":"California Pizza Kitchen","marker-color":"#3698d4","marker-size":"large","marker-symbol":"restaurant"}},{"type":"Feature","geometry":{"type":"Point","coordinates":[-78.821694,35.957366]},"properties":{"title":"New Flavor","marker-color":"#3698d4","marker-size":"large","marker-symbol":"restaurant"}},{"type":"Feature","geometry":{"type":"Point","coordinates":[-78.902722,35.996138]},"properties":{"title":"Latin Grill  The","marker-color":"#3698d4","marker-size":"large","marker-symbol":"restaurant"}},{"type":"Feature","geometry":{"type":"Point","coordinates":[-78.893719,35.883704]},"properties":{"title":"Its A Wiener","marker-color":"#3698d4","marker-size":"large","marker-symbol":"restaurant"}},{"type":"Feature","geometry":{"type":"Point","coordinates":[-78.889848,36.018437]},"properties":{"title":"Joels Tavern And Grill","marker-color":"#3698d4","marker-size":"large","marker-symbol":"restaurant"}},{"type":"Feature","geometry":{"type":"Point","coordinates":[-78.889988,36.018516]},"properties":{"title":"Mi Pequeno Honduras","marker-color":"#3698d4","marker-size":"large","marker-symbol":"restaurant"}},{"type":"Feature","geometry":{"type":"Point","coordinates":[-78.850112,35.88234]},"properties":{"title":"Quizno's Subs","marker-color":"#3698d4","marker-size":"large","marker-symbol":"restaurant"}},{"type":"Feature","geometry":{"type":"Point","coordinates":[-78.945397,35.967183]},"properties":{"title":"Dawson S","marker-color":"#3698d4","marker-size":"large","marker-symbol":"restaurant"}},{"type":"Feature","geometry":{"type":"Point","coordinates":[-78.845522,35.926183]},"properties":{"title":"Made In Mexico","marker-color":"#3698d4","marker-size":"large","marker-symbol":"restaurant"}},{"type":"Feature","geometry":{"type":"Point","coordinates":[-78.932567,35.910204]},"properties":{"title":"Subs Etc And Pizza","marker-color":"#3698d4","marker-size":"large","marker-symbol":"restaurant"}},{"type":"Feature","geometry":{"type":"Point","coordinates":[-78.922067,36.010552]},"properties":{"title":"Dale's Indian Cuisine","marker-color":"#3698d4","marker-size":"large","marker-symbol":"restaurant"}},{"type":"Feature","geometry":{"type":"Point","coordinates":[-78.901397,36.003767]},"properties":{"title":"Kings Sandwich Shop","marker-color":"#3698d4","marker-size":"large","marker-symbol":"restaurant"}},{"type":"Feature","geometry":{"type":"Point","coordinates":[-78.896075,35.900215]},"properties":{"title":"Sals Birdland Restaurant","marker-color":"#3698d4","marker-size":"large","marker-symbol":"restaurant"}},{"type":"Feature","geometry":{"type":"Point","coordinates":[-78.845522,35.926183]},"properties":{"title":"Sushi Boy","marker-color":"#3698d4","marker-size":"large","marker-symbol":"restaurant"}},{"type":"Feature","geometry":{"type":"Point","coordinates":[-78.955366,35.965863]},"properties":{"title":"Lina S Italian","marker-color":"#3698d4","marker-size":"large","marker-symbol":"restaurant"}},{"type":"Feature","geometry":{"type":"Point","coordinates":[-78.888714,36.015859]},"properties":{"title":"Chopstix","marker-color":"#3698d4","marker-size":"large","marker-symbol":"restaurant"}},{"type":"Feature","geometry":{"type":"Point","coordinates":[-78.8988889,35.9938889]},"properties":{"title":"Toreros","marker-color":"#3698d4","marker-size":"large","marker-symbol":"restaurant"}},{"type":"Feature","geometry":{"type":"Point","coordinates":[-78.815463,36.045688]},"properties":{"title":"Perky's Pizza","marker-color":"#3698d4","marker-size":"large","marker-symbol":"restaurant"}},{"type":"Feature","geometry":{"type":"Point","coordinates":[-78.891965,35.997468]},"properties":{"title":"Luxury Inn Restaurant","marker-color":"#3698d4","marker-size":"large","marker-symbol":"restaurant"}},{"type":"Feature","geometry":{"type":"Point","coordinates":[-78.929841,36.109637]},"properties":{"title":"All People's Grill","marker-color":"#3698d4","marker-size":"large","marker-symbol":"restaurant"}},{"type":"Feature","geometry":{"type":"Point","coordinates":[-78.888714,36.015859]},"properties":{"title":"La Fondita","marker-color":"#3698d4","marker-size":"large","marker-symbol":"restaurant"}},{"type":"Feature","geometry":{"type":"Point","coordinates":[-78.945454,36.018881]},"properties":{"title":"Shanghai Restaurant","marker-color":"#3698d4","marker-size":"large","marker-symbol":"restaurant"}},{"type":"Feature","geometry":{"type":"Point","coordinates":[-78.896559,35.898915]},"properties":{"title":"Cappy's Subs \u0026 Bakery","marker-color":"#3698d4","marker-size":"large","marker-symbol":"restaurant"}},{"type":"Feature","geometry":{"type":"Point","coordinates":[-78.896257,35.890368]},"properties":{"title":"Blue Sage  The","marker-color":"#3698d4","marker-size":"large","marker-symbol":"restaurant"}},{"type":"Feature","geometry":{"type":"Point","coordinates":[-78.897192,35.888496]},"properties":{"title":"On The Run 22","marker-color":"#3698d4","marker-size":"large","marker-symbol":"restaurant"}},{"type":"Feature","geometry":{"type":"Point","coordinates":[-78.975278,35.959258]},"properties":{"title":"Kingdom Works","marker-color":"#3698d4","marker-size":"large","marker-symbol":"restaurant"}},{"type":"Feature","geometry":{"type":"Point","coordinates":[-78.896603,35.898848]},"properties":{"title":"Sagano Japanese Grill","marker-color":"#3698d4","marker-size":"large","marker-symbol":"restaurant"}},{"type":"Feature","geometry":{"type":"Point","coordinates":[-78.79388,35.975662]},"properties":{"title":"New China","marker-color":"#3698d4","marker-size":"large","marker-symbol":"restaurant"}},{"type":"Feature","geometry":{"type":"Point","coordinates":[-78.923778,35.990607]},"properties":{"title":"Rhythn Allay","marker-color":"#3698d4","marker-size":"large","marker-symbol":"restaurant"}},{"type":"Feature","geometry":{"type":"Point","coordinates":[-78.839427,35.922036]},"properties":{"title":"Bayer Crop Science","marker-color":"#3698d4","marker-size":"large","marker-symbol":"restaurant"}},{"type":"Feature","geometry":{"type":"Point","coordinates":[-78.836947,35.948602]},"properties":{"title":"Mcdonalds  19805","marker-color":"#3698d4","marker-size":"large","marker-symbol":"restaurant"}},{"type":"Feature","geometry":{"type":"Point","coordinates":[-78.897983,35.995875]},"properties":{"title":"Top's China Restaurant","marker-color":"#3698d4","marker-size":"large","marker-symbol":"restaurant"}},{"type":"Feature","geometry":{"type":"Point","coordinates":[-78.922072,36.008307]},"properties":{"title":"Ravenas","marker-color":"#3698d4","marker-size":"large","marker-symbol":"restaurant"}},{"type":"Feature","geometry":{"type":"Point","coordinates":[-78.815952,35.980268]},"properties":{"title":"The Mallard","marker-color":"#3698d4","marker-size":"large","marker-symbol":"restaurant"}},{"type":"Feature","geometry":{"type":"Point","coordinates":[-78.98375,35.909771]},"properties":{"title":"Tsunami Sushi And Noodles","marker-color":"#3698d4","marker-size":"large","marker-symbol":"restaurant"}},{"type":"Feature","geometry":{"type":"Point","coordinates":[-78.903193,36.059072]},"properties":{"title":"Goodberry's Creamery","marker-color":"#3698d4","marker-size":"large","marker-symbol":"restaurant"}},{"type":"Feature","geometry":{"type":"Point","coordinates":[-78.895313,35.966697]},"properties":{"title":"El Shaddai Eatery","marker-color":"#3698d4","marker-size":"large","marker-symbol":"restaurant"}},{"type":"Feature","geometry":{"type":"Point","coordinates":[-78.890707,35.98353]},"properties":{"title":"Big Hubb S Restaurant","marker-color":"#3698d4","marker-size":"large","marker-symbol":"restaurant"}},{"type":"Feature","geometry":{"type":"Point","coordinates":[-78.895538,35.9025]},"properties":{"title":"Taco Bell","marker-color":"#3698d4","marker-size":"large","marker-symbol":"restaurant"}},{"type":"Feature","geometry":{"type":"Point","coordinates":[-78.937411,35.911109]},"properties":{"title":"Kroger  R 331  Deli","marker-color":"#3698d4","marker-size":"large","marker-symbol":"restaurant"}},{"type":"Feature","geometry":{"type":"Point","coordinates":[-78.896559,35.898915]},"properties":{"title":"Fazolis","marker-color":"#3698d4","marker-size":"large","marker-symbol":"restaurant"}},{"type":"Feature","geometry":{"type":"Point","coordinates":[-78.888599,35.988801]},"properties":{"title":"Fat Babys","marker-color":"#3698d4","marker-size":"large","marker-symbol":"restaurant"}},{"type":"Feature","geometry":{"type":"Point","coordinates":[-78.922693,35.949731]},"properties":{"title":"Kroger R 381 Seafood","marker-color":"#3698d4","marker-size":"large","marker-symbol":"restaurant"}},{"type":"Feature","geometry":{"type":"Point","coordinates":[-78.939689,35.90189]},"properties":{"title":"Subway","marker-color":"#3698d4","marker-size":"large","marker-symbol":"restaurant"}},{"type":"Feature","geometry":{"type":"Point","coordinates":[-78.959753,35.920085]},"properties":{"title":"Kangaroo Express # 104","marker-color":"#3698d4","marker-size":"large","marker-symbol":"restaurant"}},{"type":"Feature","geometry":{"type":"Point","coordinates":[-78.908735,35.98663]},"properties":{"title":"Pizza Hut Delivery","marker-color":"#3698d4","marker-size":"large","marker-symbol":"restaurant"}},{"type":"Feature","geometry":{"type":"Point","coordinates":[-78.914364,35.996931]},"properties":{"title":"Dons Dogs","marker-color":"#3698d4","marker-size":"large","marker-symbol":"restaurant"}},{"type":"Feature","geometry":{"type":"Point","coordinates":[-78.887326,35.988405]},"properties":{"title":"Mi Casa Mexican Grill","marker-color":"#3698d4","marker-size":"large","marker-symbol":"restaurant"}},{"type":"Feature","geometry":{"type":"Point","coordinates":[-78.866177,35.989488]},"properties":{"title":"Doctor's Cove Carribean Rest","marker-color":"#3698d4","marker-size":"large","marker-symbol":"restaurant"}},{"type":"Feature","geometry":{"type":"Point","coordinates":[-78.945802,35.967227]},"properties":{"title":"Cici's Pizza","marker-color":"#3698d4","marker-size":"large","marker-symbol":"restaurant"}},{"type":"Feature","geometry":{"type":"Point","coordinates":[-78.903193,36.059072]},"properties":{"title":"Tops Texaco #6","marker-color":"#3698d4","marker-size":"large","marker-symbol":"restaurant"}},{"type":"Feature","geometry":{"type":"Point","coordinates":[-78.890629,35.989027]},"properties":{"title":"Joes Kitchen","marker-color":"#3698d4","marker-size":"large","marker-symbol":"restaurant"}},{"type":"Feature","geometry":{"type":"Point","coordinates":[-78.878224,35.979164]},"properties":{"title":"Ptttigrew St Market","marker-color":"#3698d4","marker-size":"large","marker-symbol":"restaurant"}},{"type":"Feature","geometry":{"type":"Point","coordinates":[-78.890806,35.915333]},"properties":{"title":"Eats Of Eden","marker-color":"#3698d4","marker-size":"large","marker-symbol":"restaurant"}},{"type":"Feature","geometry":{"type":"Point","coordinates":[-78.880623,35.998733]},"properties":{"title":"Bekee Food Store And Grill","marker-color":"#3698d4","marker-size":"large","marker-symbol":"restaurant"}},{"type":"Feature","geometry":{"type":"Point","coordinates":[-78.91212,36.053461]},"properties":{"title":"Winn Dixie Seafood   924","marker-color":"#3698d4","marker-size":"large","marker-symbol":"restaurant"}},{"type":"Feature","geometry":{"type":"Point","coordinates":[-78.874819,35.99967]},"properties":{"title":"Wilco","marker-color":"#3698d4","marker-size":"large","marker-symbol":"restaurant"}},{"type":"Feature","geometry":{"type":"Point","coordinates":[-78.938206,35.910972]},"properties":{"title":"Harris Teeter Produce #140","marker-color":"#3698d4","marker-size":"large","marker-symbol":"restaurant"}},{"type":"Feature","geometry":{"type":"Point","coordinates":[-78.924656,35.974072]},"properties":{"title":"The Picnic Basket","marker-color":"#3698d4","marker-size":"large","marker-symbol":"restaurant"}},{"type":"Feature","geometry":{"type":"Point","coordinates":[-78.908859,36.016986]},"properties":{"title":"Cajun Cafe","marker-color":"#3698d4","marker-size":"large","marker-symbol":"restaurant"}},{"type":"Feature","geometry":{"type":"Point","coordinates":[-78.899124,35.984673]},"properties":{"title":"Caribbean Taste","marker-color":"#3698d4","marker-size":"large","marker-symbol":"restaurant"}},{"type":"Feature","geometry":{"type":"Point","coordinates":[-78.896374,35.899911]},"properties":{"title":"Starbuck's","marker-color":"#3698d4","marker-size":"large","marker-symbol":"restaurant"}},{"type":"Feature","geometry":{"type":"Point","coordinates":[-78.896603,35.898848]},"properties":{"title":"Hunan Express","marker-color":"#3698d4","marker-size":"large","marker-symbol":"restaurant"}},{"type":"Feature","geometry":{"type":"Point","coordinates":[-78.896603,35.898848]},"properties":{"title":"Papa Johns Pizza","marker-color":"#3698d4","marker-size":"large","marker-symbol":"restaurant"}},{"type":"Feature","geometry":{"type":"Point","coordinates":[-78.887326,35.988405]},"properties":{"title":"Soul Food Kitchen","marker-color":"#3698d4","marker-size":"large","marker-symbol":"restaurant"}},{"type":"Feature","geometry":{"type":"Point","coordinates":[-78.892004,35.956649]},"properties":{"title":"M And M  3","marker-color":"#3698d4","marker-size":"large","marker-symbol":"restaurant"}},{"type":"Feature","geometry":{"type":"Point","coordinates":[-78.910268,35.996978]},"properties":{"title":"Sunshine Amoco Food Mart","marker-color":"#3698d4","marker-size":"large","marker-symbol":"restaurant"}},{"type":"Feature","geometry":{"type":"Point","coordinates":[-78.904458,35.9971]},"properties":{"title":"Bull Mccabes","marker-color":"#3698d4","marker-size":"large","marker-symbol":"restaurant"}},{"type":"Feature","geometry":{"type":"Point","coordinates":[-78.843215,35.931658]},"properties":{"title":"Chubbys Tacos","marker-color":"#3698d4","marker-size":"large","marker-symbol":"restaurant"}},{"type":"Feature","geometry":{"type":"Point","coordinates":[-78.919657,36.009855]},"properties":{"title":"Beverlys","marker-color":"#3698d4","marker-size":"large","marker-symbol":"restaurant"}},{"type":"Feature","geometry":{"type":"Point","coordinates":[-78.897983,35.995875]},"properties":{"title":"Taqueria La Esperanza","marker-color":"#3698d4","marker-size":"large","marker-symbol":"restaurant"}},{"type":"Feature","geometry":{"type":"Point","coordinates":[-78.919657,36.009855]},"properties":{"title":"Char Grill Express Ltd","marker-color":"#3698d4","marker-size":"large","marker-symbol":"restaurant"}},{"type":"Feature","geometry":{"type":"Point","coordinates":[-78.887326,35.988405]},"properties":{"title":"Express Seafood","marker-color":"#3698d4","marker-size":"large","marker-symbol":"restaurant"}},{"type":"Feature","geometry":{"type":"Point","coordinates":[-78.939689,35.90189]},"properties":{"title":"Ichiban","marker-color":"#3698d4","marker-size":"large","marker-symbol":"restaurant"}},{"type":"Feature","geometry":{"type":"Point","coordinates":[-78.88995,36.019613]},"properties":{"title":"Pollo Loco","marker-color":"#3698d4","marker-size":"large","marker-symbol":"restaurant"}},{"type":"Feature","geometry":{"type":"Point","coordinates":[-78.894981,35.899282]},"properties":{"title":"Uncle Frenchy S","marker-color":"#3698d4","marker-size":"large","marker-symbol":"restaurant"}},{"type":"Feature","geometry":{"type":"Point","coordinates":[-78.81412,35.929586]},"properties":{"title":"Remington's At The Hilton","marker-color":"#3698d4","marker-size":"large","marker-symbol":"restaurant"}},{"type":"Feature","geometry":{"type":"Point","coordinates":[-78.919657,36.009855]},"properties":{"title":"Hazel's","marker-color":"#3698d4","marker-size":"large","marker-symbol":"restaurant"}},{"type":"Feature","geometry":{"type":"Point","coordinates":[-78.945802,35.967227]},"properties":{"title":"Mcdonalds  5237","marker-color":"#3698d4","marker-size":"large","marker-symbol":"restaurant"}},{"type":"Feature","geometry":{"type":"Point","coordinates":[-78.935843,35.977207]},"properties":{"title":"Boulevard Gulf","marker-color":"#3698d4","marker-size":"large","marker-symbol":"restaurant"}},{"type":"Feature","geometry":{"type":"Point","coordinates":[-78.885995,35.991891]},"properties":{"title":"Carolina Kitchen","marker-color":"#3698d4","marker-size":"large","marker-symbol":"restaurant"}},{"type":"Feature","geometry":{"type":"Point","coordinates":[-78.908859,36.016986]},"properties":{"title":"Las Lamitas","marker-color":"#3698d4","marker-size":"large","marker-symbol":"restaurant"}},{"type":"Feature","geometry":{"type":"Point","coordinates":[-78.838551,35.950836]},"properties":{"title":"Dogfathers","marker-color":"#3698d4","marker-size":"large","marker-symbol":"restaurant"}},{"type":"Feature","geometry":{"type":"Point","coordinates":[-78.928949,36.059018]},"properties":{"title":"Cross Creek Auto Center","marker-color":"#3698d4","marker-size":"large","marker-symbol":"restaurant"}},{"type":"Feature","geometry":{"type":"Point","coordinates":[-78.910348,36.000815]},"properties":{"title":"Papa Johns Pizza 639","marker-color":"#3698d4","marker-size":"large","marker-symbol":"restaurant"}},{"type":"Feature","geometry":{"type":"Point","coordinates":[-78.915773,35.995515]},"properties":{"title":"Rodriguez   Maria Elena","marker-color":"#3698d4","marker-size":"large","marker-symbol":"restaurant"}},{"type":"Feature","geometry":{"type":"Point","coordinates":[-78.904553,35.992727]},"properties":{"title":"D B A P Top Dog","marker-color":"#3698d4","marker-size":"large","marker-symbol":"restaurant"}},{"type":"Feature","geometry":{"type":"Point","coordinates":[-78.84715,35.987485]},"properties":{"title":"Lighthouse Food Mart","marker-color":"#3698d4","marker-size":"large","marker-symbol":"restaurant"}},{"type":"Feature","geometry":{"type":"Point","coordinates":[-78.946878,36.007024]},"properties":{"title":"Wishbone Grille","marker-color":"#3698d4","marker-size":"large","marker-symbol":"restaurant"}},{"type":"Feature","geometry":{"type":"Point","coordinates":[-78.896507,35.898902]},"properties":{"title":"Vit Goal Tofu Restaurant","marker-color":"#3698d4","marker-size":"large","marker-symbol":"restaurant"}},{"type":"Feature","geometry":{"type":"Point","coordinates":[-78.93663,35.975468]},"properties":{"title":"Leone International Market","marker-color":"#3698d4","marker-size":"large","marker-symbol":"restaurant"}},{"type":"Feature","geometry":{"type":"Point","coordinates":[-78.926502,35.98719]},"properties":{"title":"Dougs Seafood","marker-color":"#3698d4","marker-size":"large","marker-symbol":"restaurant"}},{"type":"Feature","geometry":{"type":"Point","coordinates":[-78.899782,35.996053]},"properties":{"title":"El Compadre  Mfu  Dc #63","marker-color":"#3698d4","marker-size":"large","marker-symbol":"restaurant"}},{"type":"Feature","geometry":{"type":"Point","coordinates":[-78.919538,36.053358]},"properties":{"title":"Sheraton University Rest","marker-color":"#3698d4","marker-size":"large","marker-symbol":"restaurant"}},{"type":"Feature","geometry":{"type":"Point","coordinates":[-78.88909,36.035475]},"properties":{"title":"Bragtwon School Lunchroom","marker-color":"#3698d4","marker-size":"large","marker-symbol":"restaurant"}},{"type":"Feature","geometry":{"type":"Point","coordinates":[-78.911159,36.007676]},"properties":{"title":"George Watts Lunchroom","marker-color":"#3698d4","marker-size":"large","marker-symbol":"restaurant"}},{"type":"Feature","geometry":{"type":"Point","coordinates":[-78.908325,35.999309]},"properties":{"title":"Fowlers","marker-color":"#3698d4","marker-size":"large","marker-symbol":"restaurant"}},{"type":"Feature","geometry":{"type":"Point","coordinates":[-78.921962,36.029899]},"properties":{"title":"Kroger R 366 Meat Market","marker-color":"#3698d4","marker-size":"large","marker-symbol":"restaurant"}},{"type":"Feature","geometry":{"type":"Point","coordinates":[-78.889852,36.027783]},"properties":{"title":"Carniceras La Mexicana","marker-color":"#3698d4","marker-size":"large","marker-symbol":"restaurant"}},{"type":"Feature","geometry":{"type":"Point","coordinates":[-78.948183,36.01309]},"properties":{"title":"Lasalle Rehabilitation Health","marker-color":"#3698d4","marker-size":"large","marker-symbol":"restaurant"}},{"type":"Feature","geometry":{"type":"Point","coordinates":[-78.903317,36.048639]},"properties":{"title":"Rose Manor","marker-color":"#3698d4","marker-size":"large","marker-symbol":"restaurant"}},{"type":"Feature","geometry":{"type":"Point","coordinates":[-78.976689,35.961059]},"properties":{"title":"Lafavorita Market","marker-color":"#3698d4","marker-size":"large","marker-symbol":"restaurant"}},{"type":"Feature","geometry":{"type":"Point","coordinates":[-78.821005,35.98142]},"properties":{"title":"La Plaza Latina Carniceria","marker-color":"#3698d4","marker-size":"large","marker-symbol":"restaurant"}},{"type":"Feature","geometry":{"type":"Point","coordinates":[-78.904181,35.996966]},"properties":{"title":"Stewart  Andre","marker-color":"#3698d4","marker-size":"large","marker-symbol":"restaurant"}},{"type":"Feature","geometry":{"type":"Point","coordinates":[-78.890155,36.028442]},"properties":{"title":"Carniceria Y Tienda Guerrevo","marker-color":"#3698d4","marker-size":"large","marker-symbol":"restaurant"}},{"type":"Feature","geometry":{"type":"Point","coordinates":[-78.945802,35.967227]},"properties":{"title":"Willis Mark","marker-color":"#3698d4","marker-size":"large","marker-symbol":"restaurant"}},{"type":"Feature","geometry":{"type":"Point","coordinates":[-78.900195,35.978597]},"properties":{"title":"Ny Cosmos Pizza","marker-color":"#3698d4","marker-size":"large","marker-symbol":"restaurant"}},{"type":"Feature","geometry":{"type":"Point","coordinates":[-78.939704,36.001089]},"properties":{"title":"Alpine Atrium/Bryan Center","marker-color":"#3698d4","marker-size":"large","marker-symbol":"restaurant"}},{"type":"Feature","geometry":{"type":"Point","coordinates":[-78.913385,36.088637]},"properties":{"title":"Carrington Middle School Lunchroom","marker-color":"#3698d4","marker-size":"large","marker-symbol":"restaurant"}},{"type":"Feature","geometry":{"type":"Point","coordinates":[-78.896603,35.898848]},"properties":{"title":"Food Lion 885","marker-color":"#3698d4","marker-size":"large","marker-symbol":"restaurant"}},{"type":"Feature","geometry":{"type":"Point","coordinates":[-78.823902,35.982014]},"properties":{"title":"Food Lion Inc","marker-color":"#3698d4","marker-size":"large","marker-symbol":"restaurant"}},{"type":"Feature","geometry":{"type":"Point","coordinates":[-78.919607,36.008553]},"properties":{"title":"Save A Center","marker-color":"#3698d4","marker-size":"large","marker-symbol":"restaurant"}},{"type":"Feature","geometry":{"type":"Point","coordinates":[-78.886745,36.007008]},"properties":{"title":"Tasty  Haven Push Cart","marker-color":"#3698d4","marker-size":"large","marker-symbol":"restaurant"}},{"type":"Feature","geometry":{"type":"Point","coordinates":[-78.792932,35.976515]},"properties":{"title":"Antonio's Coney Island","marker-color":"#3698d4","marker-size":"large","marker-symbol":"restaurant"}},{"type":"Feature","geometry":{"type":"Point","coordinates":[-78.907196,36.067859]},"properties":{"title":"Don Cecilios","marker-color":"#3698d4","marker-size":"large","marker-symbol":"restaurant"}},{"type":"Feature","geometry":{"type":"Point","coordinates":[-78.959707,35.920132]},"properties":{"title":"Burger King","marker-color":"#3698d4","marker-size":"large","marker-symbol":"restaurant"}},{"type":"Feature","geometry":{"type":"Point","coordinates":[-78.890155,36.028442]},"properties":{"title":"Saigon Grill","marker-color":"#3698d4","marker-size":"large","marker-symbol":"restaurant"}},{"type":"Feature","geometry":{"type":"Point","coordinates":[-78.850112,35.88234]},"properties":{"title":"Two Guys Pizza/ Biryani House Rtp","marker-color":"#3698d4","marker-size":"large","marker-symbol":"restaurant"}},{"type":"Feature","geometry":{"type":"Point","coordinates":[-78.905819,36.049478]},"properties":{"title":"El Rodeo Mexican Restaurant","marker-color":"#3698d4","marker-size":"large","marker-symbol":"restaurant"}},{"type":"Feature","geometry":{"type":"Point","coordinates":[-78.900196,35.995568]},"properties":{"title":"Dos Perros Restaurant","marker-color":"#3698d4","marker-size":"large","marker-symbol":"restaurant"}},{"type":"Feature","geometry":{"type":"Point","coordinates":[-78.947038,35.995049]},"properties":{"title":"Bull  Durham Bar","marker-color":"#3698d4","marker-size":"large","marker-symbol":"restaurant"}},{"type":"Feature","geometry":{"type":"Point","coordinates":[-78.900195,35.978597]},"properties":{"title":"New Visions Of Africa Ppm #2","marker-color":"#3698d4","marker-size":"large","marker-symbol":"restaurant"}},{"type":"Feature","geometry":{"type":"Point","coordinates":[-78.850112,35.88234]},"properties":{"title":"Ping Pong","marker-color":"#3698d4","marker-size":"large","marker-symbol":"restaurant"}},{"type":"Feature","geometry":{"type":"Point","coordinates":[-78.976689,35.961059]},"properties":{"title":"El Huarache Azteca De Salamandra","marker-color":"#3698d4","marker-size":"large","marker-symbol":"restaurant"}},{"type":"Feature","geometry":{"type":"Point","coordinates":[-78.929471,36.038104]},"properties":{"title":"Los Migulenos Morales Mfu","marker-color":"#3698d4","marker-size":"large","marker-symbol":"restaurant"}},{"type":"Feature","geometry":{"type":"Point","coordinates":[-78.897663,35.987345]},"properties":{"title":"Pollos La Carbonera","marker-color":"#3698d4","marker-size":"large","marker-symbol":"restaurant"}},{"type":"Feature","geometry":{"type":"Point","coordinates":[-78.851016,35.877063]},"properties":{"title":"Burger King","marker-color":"#3698d4","marker-size":"large","marker-symbol":"restaurant"}},{"type":"Feature","geometry":{"type":"Point","coordinates":[-78.888391,36.016094]},"properties":{"title":"Taco Express Dc #34","marker-color":"#3698d4","marker-size":"large","marker-symbol":"restaurant"}},{"type":"Feature","geometry":{"type":"Point","coordinates":[-78.910974,36.084066]},"properties":{"title":"Coma Rico","marker-color":"#3698d4","marker-size":"large","marker-symbol":"restaurant"}},{"type":"Feature","geometry":{"type":"Point","coordinates":[-78.920808,36.00998]},"properties":{"title":"The Tavern","marker-color":"#3698d4","marker-size":"large","marker-symbol":"restaurant"}},{"type":"Feature","geometry":{"type":"Point","coordinates":[-78.866599,35.97277]},"properties":{"title":"Derek Harrison Dc #33","marker-color":"#3698d4","marker-size":"large","marker-symbol":"restaurant"}},{"type":"Feature","geometry":{"type":"Point","coordinates":[-78.956059,35.961423]},"properties":{"title":"Tutti Frutti Frozen Yogurt","marker-color":"#3698d4","marker-size":"large","marker-symbol":"restaurant"}},{"type":"Feature","geometry":{"type":"Point","coordinates":[-78.940042,35.968046]},"properties":{"title":"Domino's Pizza","marker-color":"#3698d4","marker-size":"large","marker-symbol":"restaurant"}},{"type":"Feature","geometry":{"type":"Point","coordinates":[-78.823902,35.982014]},"properties":{"title":"Carlie C's Iga (Meat Market)","marker-color":"#3698d4","marker-size":"large","marker-symbol":"restaurant"}},{"type":"Feature","geometry":{"type":"Point","coordinates":[-78.94534,36.01899]},"properties":{"title":"Lagos Meat Market","marker-color":"#3698d4","marker-size":"large","marker-symbol":"restaurant"}},{"type":"Feature","geometry":{"type":"Point","coordinates":[-78.921118,35.996694]},"properties":{"title":"Howard D Clark/Smack's Shack Concession","marker-color":"#3698d4","marker-size":"large","marker-symbol":"restaurant"}},{"type":"Feature","geometry":{"type":"Point","coordinates":[-78.915719,35.996795]},"properties":{"title":"Chef On Premise","marker-color":"#3698d4","marker-size":"large","marker-symbol":"restaurant"}},{"type":"Feature","geometry":{"type":"Point","coordinates":[-78.904181,35.996966]},"properties":{"title":"A Perfect Bite","marker-color":"#3698d4","marker-size":"large","marker-symbol":"restaurant"}},{"type":"Feature","geometry":{"type":"Point","coordinates":[-78.955534,35.960862]},"properties":{"title":"Grill 2 Beer","marker-color":"#3698d4","marker-size":"large","marker-symbol":"restaurant"}},{"type":"Feature","geometry":{"type":"Point","coordinates":[-78.915719,35.996795]},"properties":{"title":"The Cookery","marker-color":"#3698d4","marker-size":"large","marker-symbol":"restaurant"}},{"type":"Feature","geometry":{"type":"Point","coordinates":[-78.888906,35.914955]},"properties":{"title":"Core Catering","marker-color":"#3698d4","marker-size":"large","marker-symbol":"restaurant"}},{"type":"Feature","geometry":{"type":"Point","coordinates":[-78.899782,35.996053]},"properties":{"title":"Tacos El Paraiso Dc #67","marker-color":"#3698d4","marker-size":"large","marker-symbol":"restaurant"}},{"type":"Feature","geometry":{"type":"Point","coordinates":[-78.892047,36.034603]},"properties":{"title":"Camilo Produce Corp/ Mercasito Meat Market","marker-color":"#3698d4","marker-size":"large","marker-symbol":"restaurant"}},{"type":"Feature","geometry":{"type":"Point","coordinates":[-78.877241,35.981764]},"properties":{"title":"Tootie's Grill And Cafe","marker-color":"#3698d4","marker-size":"large","marker-symbol":"restaurant"}},{"type":"Feature","geometry":{"type":"Point","coordinates":[-78.818744,36.014138]},"properties":{"title":"Lighted Pathway Academy","marker-color":"#3698d4","marker-size":"large","marker-symbol":"restaurant"}},{"type":"Feature","geometry":{"type":"Point","coordinates":[-78.877241,35.981764]},"properties":{"title":"Tacos Garcia Dc #71","marker-color":"#3698d4","marker-size":"large","marker-symbol":"restaurant"}},{"type":"Feature","geometry":{"type":"Point","coordinates":[-78.893046,35.90161]},"properties":{"title":"Toledo's Ii","marker-color":"#3698d4","marker-size":"large","marker-symbol":"restaurant"}},{"type":"Feature","geometry":{"type":"Point","coordinates":[-78.915719,35.996795]},"properties":{"title":"Sympathy For The Deli","marker-color":"#3698d4","marker-size":"large","marker-symbol":"restaurant"}},{"type":"Feature","geometry":{"type":"Point","coordinates":[-78.929203,36.010915]},"properties":{"title":"La Fiesta Tacos Dc # 82","marker-color":"#3698d4","marker-size":"large","marker-symbol":"restaurant"}},{"type":"Feature","geometry":{"type":"Point","coordinates":[-78.926502,35.98719]},"properties":{"title":"Citi Dogs","marker-color":"#3698d4","marker-size":"large","marker-symbol":"restaurant"}},{"type":"Feature","geometry":{"type":"Point","coordinates":[-78.942678,36.010753]},"properties":{"title":"Veritas Collaborative","marker-color":"#3698d4","marker-size":"large","marker-symbol":"restaurant"}},{"type":"Feature","geometry":{"type":"Point","coordinates":[-78.838396,35.950847]},"properties":{"title":"Burger King","marker-color":"#3698d4","marker-size":"large","marker-symbol":"restaurant"}},{"type":"Feature","geometry":{"type":"Point","coordinates":[-78.930121,36.011733]},"properties":{"title":"The Forum","marker-color":"#3698d4","marker-size":"large","marker-symbol":"restaurant"}},{"type":"Feature","geometry":{"type":"Point","coordinates":[-78.915719,35.996795]},"properties":{"title":"In Her Soul Catering","marker-color":"#3698d4","marker-size":"large","marker-symbol":"restaurant"}},{"type":"Feature","geometry":{"type":"Point","coordinates":[-78.93575,36.033267]},"properties":{"title":"El Corral Mexican Restaurant Inc","marker-color":"#3698d4","marker-size":"large","marker-symbol":"restaurant"}},{"type":"Feature","geometry":{"type":"Point","coordinates":[-78.900144,35.995442]},"properties":{"title":"Monuts","marker-color":"#3698d4","marker-size":"large","marker-symbol":"restaurant"}},{"type":"Feature","geometry":{"type":"Point","coordinates":[-78.917732,36.022669]},"properties":{"title":"La Cacerola Cafe And Restaurant","marker-color":"#3698d4","marker-size":"large","marker-symbol":"restaurant"}},{"type":"Feature","geometry":{"type":"Point","coordinates":[-78.81412,35.929586]},"properties":{"title":"Page Road Grill","marker-color":"#3698d4","marker-size":"large","marker-symbol":"restaurant"}},{"type":"Feature","geometry":{"type":"Point","coordinates":[-78.929469,36.038064]},"properties":{"title":"Healthy Cuisine To Go","marker-color":"#3698d4","marker-size":"large","marker-symbol":"restaurant"}},{"type":"Feature","geometry":{"type":"Point","coordinates":[-78.960363,35.962753]},"properties":{"title":"Sake Bomb","marker-color":"#3698d4","marker-size":"large","marker-symbol":"restaurant"}},{"type":"Feature","geometry":{"type":"Point","coordinates":[-78.915719,35.996795]},"properties":{"title":"Mama's Home Cooking \u0026 Catering","marker-color":"#3698d4","marker-size":"large","marker-symbol":"restaurant"}},{"type":"Feature","geometry":{"type":"Point","coordinates":[-78.885221,35.984918]},"properties":{"title":"Phat Wrapz","marker-color":"#3698d4","marker-size":"large","marker-symbol":"restaurant"}},{"type":"Feature","geometry":{"type":"Point","coordinates":[-78.899095,36.039703]},"properties":{"title":"Zaxby's","marker-color":"#3698d4","marker-size":"large","marker-symbol":"restaurant"}},{"type":"Feature","geometry":{"type":"Point","coordinates":[-49.0,-22.0]},"properties":{"title":"Prk's Home Cater","marker-color":"#3698d4","marker-size":"large","marker-symbol":"restaurant"}},{"type":"Feature","geometry":{"type":"Point","coordinates":[-78.813908,35.919153]},"properties":{"title":"Bacan's Coffee Shop","marker-color":"#3698d4","marker-size":"large","marker-symbol":"restaurant"}},{"type":"Feature","geometry":{"type":"Point","coordinates":[-78.898212,36.02869]},"properties":{"title":"Elements","marker-color":"#3698d4","marker-size":"large","marker-symbol":"restaurant"}},{"type":"Feature","geometry":{"type":"Point","coordinates":[-78.899122,36.00371]},"properties":{"title":"The Durham Pit","marker-color":"#3698d4","marker-size":"large","marker-symbol":"restaurant"}},{"type":"Feature","geometry":{"type":"Point","coordinates":[-78.877241,35.981764]},"properties":{"title":"Taco Reindo Lopez Dc # 116","marker-color":"#3698d4","marker-size":"large","marker-symbol":"restaurant"}},{"type":"Feature","geometry":{"type":"Point","coordinates":[-78.926255,36.218277]},"properties":{"title":"Courtyard Pizza","marker-color":"#3698d4","marker-size":"large","marker-symbol":"restaurant"}},{"type":"Feature","geometry":{"type":"Point","coordinates":[-78.885849,35.998776]},"properties":{"title":"14 Karat Dinnin Theatre","marker-color":"#3698d4","marker-size":"large","marker-symbol":"restaurant"}},{"type":"Feature","geometry":{"type":"Point","coordinates":[-78.910832,36.016813]},"properties":{"title":"Biscuitville   103","marker-color":"#3698d4","marker-size":"large","marker-symbol":"restaurant"}},{"type":"Feature","geometry":{"type":"Point","coordinates":[-78.897983,35.995875]},"properties":{"title":"Biscuitville 124","marker-color":"#3698d4","marker-size":"large","marker-symbol":"restaurant"}},{"type":"Feature","geometry":{"type":"Point","coordinates":[-78.900978,35.965931]},"properties":{"title":"Pearsontown Grill","marker-color":"#3698d4","marker-size":"large","marker-symbol":"restaurant"}},{"type":"Feature","geometry":{"type":"Point","coordinates":[-78.927188,36.056419]},"properties":{"title":"Ibm 002 Cafeteria","marker-color":"#3698d4","marker-size":"large","marker-symbol":"restaurant"}},{"type":"Feature","geometry":{"type":"Point","coordinates":[-78.945802,35.967227]},"properties":{"title":"Lone Star Steakhouse","marker-color":"#3698d4","marker-size":"large","marker-symbol":"restaurant"}},{"type":"Feature","geometry":{"type":"Point","coordinates":[-78.947013,35.96406]},"properties":{"title":"Valley Square Billiards","marker-color":"#3698d4","marker-size":"large","marker-symbol":"restaurant"}},{"type":"Feature","geometry":{"type":"Point","coordinates":[-78.975278,35.959258]},"properties":{"title":"Fantasia","marker-color":"#3698d4","marker-size":"large","marker-symbol":"restaurant"}},{"type":"Feature","geometry":{"type":"Point","coordinates":[-78.871534,36.016456]},"properties":{"title":"Classic Food Service","marker-color":"#3698d4","marker-size":"large","marker-symbol":"restaurant"}},{"type":"Feature","geometry":{"type":"Point","coordinates":[-78.904173,35.950943]},"properties":{"title":"Dillard's Catering \u0026 Co.","marker-color":"#3698d4","marker-size":"large","marker-symbol":"restaurant"}},{"type":"Feature","geometry":{"type":"Point","coordinates":[-78.895445,35.902555]},"properties":{"title":"Jersey Mikes","marker-color":"#3698d4","marker-size":"large","marker-symbol":"restaurant"}},{"type":"Feature","geometry":{"type":"Point","coordinates":[-78.891627,35.955939]},"properties":{"title":"Eagles Inn","marker-color":"#3698d4","marker-size":"large","marker-symbol":"restaurant"}},{"type":"Feature","geometry":{"type":"Point","coordinates":[-78.93605,35.977038]},"properties":{"title":"Lagrillade","marker-color":"#3698d4","marker-size":"large","marker-symbol":"restaurant"}},{"type":"Feature","geometry":{"type":"Point","coordinates":[-78.90821,35.999486]},"properties":{"title":"Fish Mongers","marker-color":"#3698d4","marker-size":"large","marker-symbol":"restaurant"}},{"type":"Feature","geometry":{"type":"Point","coordinates":[-78.945251,36.018842]},"properties":{"title":"Shanghai Restaurant","marker-color":"#3698d4","marker-size":"large","marker-symbol":"restaurant"}},{"type":"Feature","geometry":{"type":"Point","coordinates":[-78.851016,35.877063]},"properties":{"title":"Shel's Deli","marker-color":"#3698d4","marker-size":"large","marker-symbol":"restaurant"}},{"type":"Feature","geometry":{"type":"Point","coordinates":[-78.900739,35.994997]},"properties":{"title":"Grinder's Switch","marker-color":"#3698d4","marker-size":"large","marker-symbol":"restaurant"}},{"type":"Feature","geometry":{"type":"Point","coordinates":[-78.953512,36.022423]},"properties":{"title":"Subway","marker-color":"#3698d4","marker-size":"large","marker-symbol":"restaurant"}},{"type":"Feature","geometry":{"type":"Point","coordinates":[-78.950076,36.020949]},"properties":{"title":"Checkers","marker-color":"#3698d4","marker-size":"large","marker-symbol":"restaurant"}},{"type":"Feature","geometry":{"type":"Point","coordinates":[-78.9044,35.992821]},"properties":{"title":"Seafood Box","marker-color":"#3698d4","marker-size":"large","marker-symbol":"restaurant"}},{"type":"Feature","geometry":{"type":"Point","coordinates":[-78.945802,35.967227]},"properties":{"title":"Oak Creek Subway Inc","marker-color":"#3698d4","marker-size":"large","marker-symbol":"restaurant"}},{"type":"Feature","geometry":{"type":"Point","coordinates":[-78.900474,35.994813]},"properties":{"title":"China Gate","marker-color":"#3698d4","marker-size":"large","marker-symbol":"restaurant"}},{"type":"Feature","geometry":{"type":"Point","coordinates":[-78.902558,35.996026]},"properties":{"title":"Main Street Cafe","marker-color":"#3698d4","marker-size":"large","marker-symbol":"restaurant"}},{"type":"Feature","geometry":{"type":"Point","coordinates":[-78.902613,35.996063]},"properties":{"title":"Crescent Cafe","marker-color":"#3698d4","marker-size":"large","marker-symbol":"restaurant"}},{"type":"Feature","geometry":{"type":"Point","coordinates":[-78.874653,36.00765]},"properties":{"title":"Royal Home Fashions","marker-color":"#3698d4","marker-size":"large","marker-symbol":"restaurant"}},{"type":"Feature","geometry":{"type":"Point","coordinates":[-78.900739,35.994997]},"properties":{"title":"Bogarts","marker-color":"#3698d4","marker-size":"large","marker-symbol":"restaurant"}},{"type":"Feature","geometry":{"type":"Point","coordinates":[-78.879547,35.891884]},"properties":{"title":"Burroughs Wellcome Research Commons 2","marker-color":"#3698d4","marker-size":"large","marker-symbol":"restaurant"}},{"type":"Feature","geometry":{"type":"Point","coordinates":[-78.924576,36.006812]},"properties":{"title":"The Market Place","marker-color":"#3698d4","marker-size":"large","marker-symbol":"restaurant"}},{"type":"Feature","geometry":{"type":"Point","coordinates":[-78.888859,36.015954]},"properties":{"title":"Arby's Roast Beef Restaurant","marker-color":"#3698d4","marker-size":"large","marker-symbol":"restaurant"}},{"type":"Feature","geometry":{"type":"Point","coordinates":[-78.903193,36.059072]},"properties":{"title":"Mcdonald's #368","marker-color":"#3698d4","marker-size":"large","marker-symbol":"restaurant"}},{"type":"Feature","geometry":{"type":"Point","coordinates":[-78.888714,36.015859]},"properties":{"title":"Ma Beatty's Kitchen","marker-color":"#3698d4","marker-size":"large","marker-symbol":"restaurant"}},{"type":"Feature","geometry":{"type":"Point","coordinates":[-78.908175,35.99946]},"properties":{"title":"Bell Book \u0026 Coffee","marker-color":"#3698d4","marker-size":"large","marker-symbol":"restaurant"}},{"type":"Feature","geometry":{"type":"Point","coordinates":[-78.905473,36.022498]},"properties":{"title":"Mayberry's","marker-color":"#3698d4","marker-size":"large","marker-symbol":"restaurant"}},{"type":"Feature","geometry":{"type":"Point","coordinates":[-78.891627,35.955939]},"properties":{"title":"Sara's  Empanadas","marker-color":"#3698d4","marker-size":"large","marker-symbol":"restaurant"}},{"type":"Feature","geometry":{"type":"Point","coordinates":[-78.919891,36.006038]},"properties":{"title":"Cinelli's Pizza","marker-color":"#3698d4","marker-size":"large","marker-symbol":"restaurant"}},{"type":"Feature","geometry":{"type":"Point","coordinates":[-78.910382,36.000651]},"properties":{"title":"Bread And Kebab","marker-color":"#3698d4","marker-size":"large","marker-symbol":"restaurant"}},{"type":"Feature","geometry":{"type":"Point","coordinates":[-78.93608,36.010092]},"properties":{"title":"Dynasty Express","marker-color":"#3698d4","marker-size":"large","marker-symbol":"restaurant"}},{"type":"Feature","geometry":{"type":"Point","coordinates":[-78.850112,35.88234]},"properties":{"title":"Blue Mesa","marker-color":"#3698d4","marker-size":"large","marker-symbol":"restaurant"}},{"type":"Feature","geometry":{"type":"Point","coordinates":[-78.917768,35.911215]},"properties":{"title":"Southpoint Cinemas","marker-color":"#3698d4","marker-size":"large","marker-symbol":"restaurant"}},{"type":"Feature","geometry":{"type":"Point","coordinates":[-78.888859,36.015954]},"properties":{"title":"Arbys","marker-color":"#3698d4","marker-size":"large","marker-symbol":"restaurant"}},{"type":"Feature","geometry":{"type":"Point","coordinates":[-78.954714,35.959756]},"properties":{"title":"Super China","marker-color":"#3698d4","marker-size":"large","marker-symbol":"restaurant"}},{"type":"Feature","geometry":{"type":"Point","coordinates":[-78.862501,35.890517]},"properties":{"title":"Basf Cafeteria","marker-color":"#3698d4","marker-size":"large","marker-symbol":"restaurant"}},{"type":"Feature","geometry":{"type":"Point","coordinates":[-78.926505,36.029456]},"properties":{"title":"J \u0026 J Fish And Chicken","marker-color":"#3698d4","marker-size":"large","marker-symbol":"restaurant"}},{"type":"Feature","geometry":{"type":"Point","coordinates":[-78.945802,35.967227]},"properties":{"title":"Torero's Iv Mexican Rest","marker-color":"#3698d4","marker-size":"large","marker-symbol":"restaurant"}},{"type":"Feature","geometry":{"type":"Point","coordinates":[-78.895612,35.901881]},"properties":{"title":"Philly Steak Factory","marker-color":"#3698d4","marker-size":"large","marker-symbol":"restaurant"}},{"type":"Feature","geometry":{"type":"Point","coordinates":[-78.930928,35.982834]},"properties":{"title":"Greenhouse Cafe","marker-color":"#3698d4","marker-size":"large","marker-symbol":"restaurant"}},{"type":"Feature","geometry":{"type":"Point","coordinates":[-78.896257,35.890368]},"properties":{"title":"Beto S Mexican Restaurant","marker-color":"#3698d4","marker-size":"large","marker-symbol":"restaurant"}},{"type":"Feature","geometry":{"type":"Point","coordinates":[-78.888248,35.933489]},"properties":{"title":"Circle K  6330","marker-color":"#3698d4","marker-size":"large","marker-symbol":"restaurant"}},{"type":"Feature","geometry":{"type":"Point","coordinates":[-78.900474,35.994813]},"properties":{"title":"Lunch N Time","marker-color":"#3698d4","marker-size":"large","marker-symbol":"restaurant"}},{"type":"Feature","geometry":{"type":"Point","coordinates":[-78.888599,35.988801]},"properties":{"title":"Granny's Take Out","marker-color":"#3698d4","marker-size":"large","marker-symbol":"restaurant"}},{"type":"Feature","geometry":{"type":"Point","coordinates":[-78.929209,36.033443]},"properties":{"title":"Hong Kong Chinese Rest","marker-color":"#3698d4","marker-size":"large","marker-symbol":"restaurant"}},{"type":"Feature","geometry":{"type":"Point","coordinates":[-78.851016,35.877063]},"properties":{"title":"Mcdonald S #6819","marker-color":"#3698d4","marker-size":"large","marker-symbol":"restaurant"}},{"type":"Feature","geometry":{"type":"Point","coordinates":[-78.916907,36.028275]},"properties":{"title":"Rudino's","marker-color":"#3698d4","marker-size":"large","marker-symbol":"restaurant"}},{"type":"Feature","geometry":{"type":"Point","coordinates":[-78.896603,35.898848]},"properties":{"title":"Thai China Buffet","marker-color":"#3698d4","marker-size":"large","marker-symbol":"restaurant"}},{"type":"Feature","geometry":{"type":"Point","coordinates":[-78.839427,35.922036]},"properties":{"title":"Dupont Cafeteria","marker-color":"#3698d4","marker-size":"large","marker-symbol":"restaurant"}},{"type":"Feature","geometry":{"type":"Point","coordinates":[-78.954721,35.959782]},"properties":{"title":"Taco Bell","marker-color":"#3698d4","marker-size":"large","marker-symbol":"restaurant"}},{"type":"Feature","geometry":{"type":"Point","coordinates":[-78.898008,35.996773]},"properties":{"title":"Soul Good Juice Cafe","marker-color":"#3698d4","marker-size":"large","marker-symbol":"restaurant"}},{"type":"Feature","geometry":{"type":"Point","coordinates":[-78.938268,36.031396]},"properties":{"title":"Courtyard Cafe","marker-color":"#3698d4","marker-size":"large","marker-symbol":"restaurant"}},{"type":"Feature","geometry":{"type":"Point","coordinates":[-78.957872,35.972402]},"properties":{"title":"Mcdonald  5234","marker-color":"#3698d4","marker-size":"large","marker-symbol":"restaurant"}},{"type":"Feature","geometry":{"type":"Point","coordinates":[-78.908043,36.091848]},"properties":{"title":"Bio Merieux","marker-color":"#3698d4","marker-size":"large","marker-symbol":"restaurant"}},{"type":"Feature","geometry":{"type":"Point","coordinates":[-78.922064,36.008467]},"properties":{"title":"Ninth St Bakery At The Regulat","marker-color":"#3698d4","marker-size":"large","marker-symbol":"restaurant"}},{"type":"Feature","geometry":{"type":"Point","coordinates":[-78.888579,36.01598]},"properties":{"title":"Hong Kong Buffet","marker-color":"#3698d4","marker-size":"large","marker-symbol":"restaurant"}},{"type":"Feature","geometry":{"type":"Point","coordinates":[-78.898008,35.996773]},"properties":{"title":"Ymca Atrium Cafe","marker-color":"#3698d4","marker-size":"large","marker-symbol":"restaurant"}},{"type":"Feature","geometry":{"type":"Point","coordinates":[-78.945177,36.018807]},"properties":{"title":"Japan Express","marker-color":"#3698d4","marker-size":"large","marker-symbol":"restaurant"}},{"type":"Feature","geometry":{"type":"Point","coordinates":[-78.905819,36.049478]},"properties":{"title":"Dorothy S Takeout And Bakery","marker-color":"#3698d4","marker-size":"large","marker-symbol":"restaurant"}},{"type":"Feature","geometry":{"type":"Point","coordinates":[-78.952541,36.022003]},"properties":{"title":"Aunt Dates Donuts","marker-color":"#3698d4","marker-size":"large","marker-symbol":"restaurant"}},{"type":"Feature","geometry":{"type":"Point","coordinates":[-78.887326,35.988405]},"properties":{"title":"Taqueria El Chilango","marker-color":"#3698d4","marker-size":"large","marker-symbol":"restaurant"}},{"type":"Feature","geometry":{"type":"Point","coordinates":[-78.922006,36.00944]},"properties":{"title":"College Town Pizza And Subs","marker-color":"#3698d4","marker-size":"large","marker-symbol":"restaurant"}},{"type":"Feature","geometry":{"type":"Point","coordinates":[-78.907669,35.993619]},"properties":{"title":"Stocks","marker-color":"#3698d4","marker-size":"large","marker-symbol":"restaurant"}},{"type":"Feature","geometry":{"type":"Point","coordinates":[-78.903174,36.047567]},"properties":{"title":"Rhinos Restaurant Tavern","marker-color":"#3698d4","marker-size":"large","marker-symbol":"restaurant"}},{"type":"Feature","geometry":{"type":"Point","coordinates":[-78.910974,36.084066]},"properties":{"title":"Lighthouse Country Ktichen Ric","marker-color":"#3698d4","marker-size":"large","marker-symbol":"restaurant"}},{"type":"Feature","geometry":{"type":"Point","coordinates":[-78.954376,36.004919]},"properties":{"title":"Innovation Cafe","marker-color":"#3698d4","marker-size":"large","marker-symbol":"restaurant"}},{"type":"Feature","geometry":{"type":"Point","coordinates":[-78.83771,35.947271]},"properties":{"title":"Greybo S Catering","marker-color":"#3698d4","marker-size":"large","marker-symbol":"restaurant"}},{"type":"Feature","geometry":{"type":"Point","coordinates":[-78.893046,35.90161]},"properties":{"title":"Toledo's Taqueria","marker-color":"#3698d4","marker-size":"large","marker-symbol":"restaurant"}},{"type":"Feature","geometry":{"type":"Point","coordinates":[-78.912927,36.018721]},"properties":{"title":"Dragon Express","marker-color":"#3698d4","marker-size":"large","marker-symbol":"restaurant"}},{"type":"Feature","geometry":{"type":"Point","coordinates":[-78.895445,35.902555]},"properties":{"title":"Jersey Mikes Subs","marker-color":"#3698d4","marker-size":"large","marker-symbol":"restaurant"}},{"type":"Feature","geometry":{"type":"Point","coordinates":[-78.897983,35.995875]},"properties":{"title":"Biscuitville","marker-color":"#3698d4","marker-size":"large","marker-symbol":"restaurant"}},{"type":"Feature","geometry":{"type":"Point","coordinates":[-78.903801,35.997058]},"properties":{"title":"Edge  The","marker-color":"#3698d4","marker-size":"large","marker-symbol":"restaurant"}},{"type":"Feature","geometry":{"type":"Point","coordinates":[-78.907669,35.993619]},"properties":{"title":"Ramada Inn Restaurant","marker-color":"#3698d4","marker-size":"large","marker-symbol":"restaurant"}},{"type":"Feature","geometry":{"type":"Point","coordinates":[-78.896306,35.991448]},"properties":{"title":"Nee Oriental Fast Food","marker-color":"#3698d4","marker-size":"large","marker-symbol":"restaurant"}},{"type":"Feature","geometry":{"type":"Point","coordinates":[-78.922006,36.00944]},"properties":{"title":"Taqueria La Frontera","marker-color":"#3698d4","marker-size":"large","marker-symbol":"restaurant"}},{"type":"Feature","geometry":{"type":"Point","coordinates":[-78.895307,35.902368]},"properties":{"title":"Papa Lou S Grill","marker-color":"#3698d4","marker-size":"large","marker-symbol":"restaurant"}},{"type":"Feature","geometry":{"type":"Point","coordinates":[-78.850112,35.88234]},"properties":{"title":"Wok N Grill","marker-color":"#3698d4","marker-size":"large","marker-symbol":"restaurant"}},{"type":"Feature","geometry":{"type":"Point","coordinates":[-78.922064,36.008467]},"properties":{"title":"Java Cafe At The Regulator","marker-color":"#3698d4","marker-size":"large","marker-symbol":"restaurant"}},{"type":"Feature","geometry":{"type":"Point","coordinates":[-78.897983,35.995875]},"properties":{"title":"Shaboom","marker-color":"#3698d4","marker-size":"large","marker-symbol":"restaurant"}},{"type":"Feature","geometry":{"type":"Point","coordinates":[-78.95833,35.902004]},"properties":{"title":"Kangaroo  3489","marker-color":"#3698d4","marker-size":"large","marker-symbol":"restaurant"}},{"type":"Feature","geometry":{"type":"Point","coordinates":[-78.90043,35.977922]},"properties":{"title":"United Eagle Village Food Mart","marker-color":"#3698d4","marker-size":"large","marker-symbol":"restaurant"}},{"type":"Feature","geometry":{"type":"Point","coordinates":[-78.776817,35.915756]},"properties":{"title":"Manchester's Grill","marker-color":"#3698d4","marker-size":"large","marker-symbol":"restaurant"}},{"type":"Feature","geometry":{"type":"Point","coordinates":[-78.92201,36.009366]},"properties":{"title":"Metro 8","marker-color":"#3698d4","marker-size":"large","marker-symbol":"restaurant"}},{"type":"Feature","geometry":{"type":"Point","coordinates":[-78.971516,35.952761]},"properties":{"title":"Brown Baggin It","marker-color":"#3698d4","marker-size":"large","marker-symbol":"restaurant"}},{"type":"Feature","geometry":{"type":"Point","coordinates":[-78.928692,35.920888]},"properties":{"title":"Nantucket Grill And Bar","marker-color":"#3698d4","marker-size":"large","marker-symbol":"restaurant"}},{"type":"Feature","geometry":{"type":"Point","coordinates":[-78.993222,35.955014]},"properties":{"title":"Carrabbas Italian Grill","marker-color":"#3698d4","marker-size":"large","marker-symbol":"restaurant"}},{"type":"Feature","geometry":{"type":"Point","coordinates":[-78.885995,35.991891]},"properties":{"title":"Jacks Deli","marker-color":"#3698d4","marker-size":"large","marker-symbol":"restaurant"}},{"type":"Feature","geometry":{"type":"Point","coordinates":[-78.910974,36.084066]},"properties":{"title":"Za's Pizza","marker-color":"#3698d4","marker-size":"large","marker-symbol":"restaurant"}},{"type":"Feature","geometry":{"type":"Point","coordinates":[-78.895367,35.968308]},"properties":{"title":"Firehouse Subs","marker-color":"#3698d4","marker-size":"large","marker-symbol":"restaurant"}},{"type":"Feature","geometry":{"type":"Point","coordinates":[-78.945177,36.018807]},"properties":{"title":"Japan Express","marker-color":"#3698d4","marker-size":"large","marker-symbol":"restaurant"}},{"type":"Feature","geometry":{"type":"Point","coordinates":[-78.821694,35.957366]},"properties":{"title":"Bethesda Athletic Assoc. Concession","marker-color":"#3698d4","marker-size":"large","marker-symbol":"restaurant"}},{"type":"Feature","geometry":{"type":"Point","coordinates":[-78.903795,35.998152]},"properties":{"title":"Flying Borito Stand","marker-color":"#3698d4","marker-size":"large","marker-symbol":"restaurant"}},{"type":"Feature","geometry":{"type":"Point","coordinates":[-78.945802,35.967227]},"properties":{"title":"Sams Club 4831 Deli","marker-color":"#3698d4","marker-size":"large","marker-symbol":"restaurant"}},{"type":"Feature","geometry":{"type":"Point","coordinates":[-78.888615,35.977878]},"properties":{"title":"Harlam Mini Mart","marker-color":"#3698d4","marker-size":"large","marker-symbol":"restaurant"}},{"type":"Feature","geometry":{"type":"Point","coordinates":[-78.894981,35.899282]},"properties":{"title":"La Tropicale Catering \u0026 Cafe","marker-color":"#3698d4","marker-size":"large","marker-symbol":"restaurant"}},{"type":"Feature","geometry":{"type":"Point","coordinates":[-78.939907,35.96809]},"properties":{"title":"Carribean Patties And Pastry","marker-color":"#3698d4","marker-size":"large","marker-symbol":"restaurant"}},{"type":"Feature","geometry":{"type":"Point","coordinates":[-78.899782,35.996053]},"properties":{"title":"Canuto  Jose Alberto","marker-color":"#3698d4","marker-size":"large","marker-symbol":"restaurant"}},{"type":"Feature","geometry":{"type":"Point","coordinates":[-78.897983,35.995875]},"properties":{"title":"Cruz  Alejandro Redriquez","marker-color":"#3698d4","marker-size":"large","marker-symbol":"restaurant"}},{"type":"Feature","geometry":{"type":"Point","coordinates":[-78.993809,35.954732]},"properties":{"title":"Mcalister's Deli","marker-color":"#3698d4","marker-size":"large","marker-symbol":"restaurant"}},{"type":"Feature","geometry":{"type":"Point","coordinates":[-78.908859,36.016986]},"properties":{"title":"Garden N Counter","marker-color":"#3698d4","marker-size":"large","marker-symbol":"restaurant"}},{"type":"Feature","geometry":{"type":"Point","coordinates":[-78.897983,35.995875]},"properties":{"title":"Seafood Box","marker-color":"#3698d4","marker-size":"large","marker-symbol":"restaurant"}},{"type":"Feature","geometry":{"type":"Point","coordinates":[-78.907196,36.067859]},"properties":{"title":"Pizza Transit Authority","marker-color":"#3698d4","marker-size":"large","marker-symbol":"restaurant"}},{"type":"Feature","geometry":{"type":"Point","coordinates":[-78.919329,36.015652]},"properties":{"title":"Pawly Dogs","marker-color":"#3698d4","marker-size":"large","marker-symbol":"restaurant"}},{"type":"Feature","geometry":{"type":"Point","coordinates":[-78.903479,36.00076]},"properties":{"title":"El Toro   The Bull","marker-color":"#3698d4","marker-size":"large","marker-symbol":"restaurant"}},{"type":"Feature","geometry":{"type":"Point","coordinates":[-78.897983,35.995875]},"properties":{"title":"Soto  Ana M","marker-color":"#3698d4","marker-size":"large","marker-symbol":"restaurant"}},{"type":"Feature","geometry":{"type":"Point","coordinates":[-78.871065,36.026853]},"properties":{"title":"Town \u0026 Country # 1","marker-color":"#3698d4","marker-size":"large","marker-symbol":"restaurant"}},{"type":"Feature","geometry":{"type":"Point","coordinates":[-78.81412,35.929586]},"properties":{"title":"Jimmy John's 991","marker-color":"#3698d4","marker-size":"large","marker-symbol":"restaurant"}},{"type":"Feature","geometry":{"type":"Point","coordinates":[-78.910103,35.985581]},"properties":{"title":"Chuckey's Carry Out","marker-color":"#3698d4","marker-size":"large","marker-symbol":"restaurant"}},{"type":"Feature","geometry":{"type":"Point","coordinates":[-78.910974,36.084066]},"properties":{"title":"Jus Wing It","marker-color":"#3698d4","marker-size":"large","marker-symbol":"restaurant"}},{"type":"Feature","geometry":{"type":"Point","coordinates":[-78.981574,36.032753]},"properties":{"title":"Singhs Food Land","marker-color":"#3698d4","marker-size":"large","marker-symbol":"restaurant"}},{"type":"Feature","geometry":{"type":"Point","coordinates":[-78.890629,35.989027]},"properties":{"title":"J \u0026 J Grill","marker-color":"#3698d4","marker-size":"large","marker-symbol":"restaurant"}},{"type":"Feature","geometry":{"type":"Point","coordinates":[-78.912627,36.002051]},"properties":{"title":"Domino's Pizza","marker-color":"#3698d4","marker-size":"large","marker-symbol":"restaurant"}},{"type":"Feature","geometry":{"type":"Point","coordinates":[-78.978167,36.032952]},"properties":{"title":"Food Lion Deli  939","marker-color":"#3698d4","marker-size":"large","marker-symbol":"restaurant"}},{"type":"Feature","geometry":{"type":"Point","coordinates":[-78.861657,36.119968]},"properties":{"title":"Food Lion Deli  274","marker-color":"#3698d4","marker-size":"large","marker-symbol":"restaurant"}},{"type":"Feature","geometry":{"type":"Point","coordinates":[-78.845522,35.926183]},"properties":{"title":"Bordeau Catering","marker-color":"#3698d4","marker-size":"large","marker-symbol":"restaurant"}},{"type":"Feature","geometry":{"type":"Point","coordinates":[-78.888714,36.015859]},"properties":{"title":"Compare Foods Deli","marker-color":"#3698d4","marker-size":"large","marker-symbol":"restaurant"}},{"type":"Feature","geometry":{"type":"Point","coordinates":[-78.928953,35.920594]},"properties":{"title":"Dream Dinners Of Durham","marker-color":"#3698d4","marker-size":"large","marker-symbol":"restaurant"}},{"type":"Feature","geometry":{"type":"Point","coordinates":[-78.994427,35.954358]},"properties":{"title":"Staybridge Suites Breakfast Ba","marker-color":"#3698d4","marker-size":"large","marker-symbol":"restaurant"}},{"type":"Feature","geometry":{"type":"Point","coordinates":[-78.892845,35.990544]},"properties":{"title":"D K's Place","marker-color":"#3698d4","marker-size":"large","marker-symbol":"restaurant"}},{"type":"Feature","geometry":{"type":"Point","coordinates":[-78.91764,35.996793]},"properties":{"title":"Sgt Pepperoni's New York Pizza Stand","marker-color":"#3698d4","marker-size":"large","marker-symbol":"restaurant"}},{"type":"Feature","geometry":{"type":"Point","coordinates":[-78.910974,36.084066]},"properties":{"title":"Lighthouse Deli","marker-color":"#3698d4","marker-size":"large","marker-symbol":"restaurant"}},{"type":"Feature","geometry":{"type":"Point","coordinates":[-78.900195,35.978597]},"properties":{"title":"Celluccis Pizza","marker-color":"#3698d4","marker-size":"large","marker-symbol":"restaurant"}},{"type":"Feature","geometry":{"type":"Point","coordinates":[-78.897983,35.995875]},"properties":{"title":"Byrd's Deli   #43","marker-color":"#3698d4","marker-size":"large","marker-symbol":"restaurant"}},{"type":"Feature","geometry":{"type":"Point","coordinates":[-78.900195,35.978597]},"properties":{"title":"C.D.'s Quik Shop","marker-color":"#3698d4","marker-size":"large","marker-symbol":"restaurant"}},{"type":"Feature","geometry":{"type":"Point","coordinates":[-78.901517,36.000177]},"properties":{"title":"Dog House   The","marker-color":"#3698d4","marker-size":"large","marker-symbol":"restaurant"}},{"type":"Feature","geometry":{"type":"Point","coordinates":[-78.861657,36.119968]},"properties":{"title":"Food Lion Deli  274","marker-color":"#3698d4","marker-size":"large","marker-symbol":"restaurant"}},{"type":"Feature","geometry":{"type":"Point","coordinates":[-78.957844,35.960759]},"properties":{"title":"Harris Teeter #172 Deli","marker-color":"#3698d4","marker-size":"large","marker-symbol":"restaurant"}},{"type":"Feature","geometry":{"type":"Point","coordinates":[-78.908859,36.016986]},"properties":{"title":"Mrs Field S/St George Cookie","marker-color":"#3698d4","marker-size":"large","marker-symbol":"restaurant"}},{"type":"Feature","geometry":{"type":"Point","coordinates":[-78.897983,35.995875]},"properties":{"title":"Leobardo M Malina","marker-color":"#3698d4","marker-size":"large","marker-symbol":"restaurant"}},{"type":"Feature","geometry":{"type":"Point","coordinates":[-78.904553,35.992727]},"properties":{"title":"D B A P First Base Flip Side Grill","marker-color":"#3698d4","marker-size":"large","marker-symbol":"restaurant"}},{"type":"Feature","geometry":{"type":"Point","coordinates":[-78.939689,35.90189]},"properties":{"title":"U S Bistro","marker-color":"#3698d4","marker-size":"large","marker-symbol":"restaurant"}},{"type":"Feature","geometry":{"type":"Point","coordinates":[-78.951827,36.022937]},"properties":{"title":"Intimate Affairs Catering","marker-color":"#3698d4","marker-size":"large","marker-symbol":"restaurant"}},{"type":"Feature","geometry":{"type":"Point","coordinates":[-78.915339,36.020807]},"properties":{"title":"Harris Teeter #111","marker-color":"#3698d4","marker-size":"large","marker-symbol":"restaurant"}},{"type":"Feature","geometry":{"type":"Point","coordinates":[-78.888696,36.015974]},"properties":{"title":"I 85 Amoco Food Shop","marker-color":"#3698d4","marker-size":"large","marker-symbol":"restaurant"}},{"type":"Feature","geometry":{"type":"Point","coordinates":[-78.897983,35.995875]},"properties":{"title":"Joyland Grocery \u0026 Grill","marker-color":"#3698d4","marker-size":"large","marker-symbol":"restaurant"}},{"type":"Feature","geometry":{"type":"Point","coordinates":[-78.892004,35.956649]},"properties":{"title":"M And M  3","marker-color":"#3698d4","marker-size":"large","marker-symbol":"restaurant"}},{"type":"Feature","geometry":{"type":"Point","coordinates":[-78.89542,36.001236]},"properties":{"title":"M And M  4","marker-color":"#3698d4","marker-size":"large","marker-symbol":"restaurant"}},{"type":"Feature","geometry":{"type":"Point","coordinates":[-78.877836,35.982085]},"properties":{"title":"Crabtree Corners","marker-color":"#3698d4","marker-size":"large","marker-symbol":"restaurant"}},{"type":"Feature","geometry":{"type":"Point","coordinates":[-78.890876,35.900927]},"properties":{"title":"Lowes Grove Bp","marker-color":"#3698d4","marker-size":"large","marker-symbol":"restaurant"}},{"type":"Feature","geometry":{"type":"Point","coordinates":[-78.945802,35.967227]},"properties":{"title":"Orange Julius","marker-color":"#3698d4","marker-size":"large","marker-symbol":"restaurant"}},{"type":"Feature","geometry":{"type":"Point","coordinates":[-78.896306,35.991448]},"properties":{"title":"Chicago Express","marker-color":"#3698d4","marker-size":"large","marker-symbol":"restaurant"}},{"type":"Feature","geometry":{"type":"Point","coordinates":[-78.887621,36.00186]},"properties":{"title":"John Evans","marker-color":"#3698d4","marker-size":"large","marker-symbol":"restaurant"}},{"type":"Feature","geometry":{"type":"Point","coordinates":[-78.895534,35.902202]},"properties":{"title":"It's A Wiener","marker-color":"#3698d4","marker-size":"large","marker-symbol":"restaurant"}},{"type":"Feature","geometry":{"type":"Point","coordinates":[-78.871534,36.016456]},"properties":{"title":"Classic Food Service","marker-color":"#3698d4","marker-size":"large","marker-symbol":"restaurant"}},{"type":"Feature","geometry":{"type":"Point","coordinates":[-78.978167,36.032952]},"properties":{"title":"Food Lion  939","marker-color":"#3698d4","marker-size":"large","marker-symbol":"restaurant"}},{"type":"Feature","geometry":{"type":"Point","coordinates":[-78.893573,36.03573]},"properties":{"title":"Food Lion/Meat Market #747","marker-color":"#3698d4","marker-size":"large","marker-symbol":"restaurant"}},{"type":"Feature","geometry":{"type":"Point","coordinates":[-78.860301,36.005114]},"properties":{"title":"Concept Foods","marker-color":"#3698d4","marker-size":"large","marker-symbol":"restaurant"}},{"type":"Feature","geometry":{"type":"Point","coordinates":[-78.945802,35.967227]},"properties":{"title":"Stewart  Andre","marker-color":"#3698d4","marker-size":"large","marker-symbol":"restaurant"}},{"type":"Feature","geometry":{"type":"Point","coordinates":[-78.91297,36.018799]},"properties":{"title":"Boghosian  Stephan","marker-color":"#3698d4","marker-size":"large","marker-symbol":"restaurant"}},{"type":"Feature","geometry":{"type":"Point","coordinates":[-78.984988,35.908386]},"properties":{"title":"Wynwood Of Chapel Hill","marker-color":"#3698d4","marker-size":"large","marker-symbol":"restaurant"}},{"type":"Feature","geometry":{"type":"Point","coordinates":[-78.954376,36.004919]},"properties":{"title":"Duke Center For Living","marker-color":"#3698d4","marker-size":"large","marker-symbol":"restaurant"}},{"type":"Feature","geometry":{"type":"Point","coordinates":[-78.945419,35.998458]},"properties":{"title":"Sanford Center Deli/Towerview","marker-color":"#3698d4","marker-size":"large","marker-symbol":"restaurant"}},{"type":"Feature","geometry":{"type":"Point","coordinates":[-78.946662,35.995559]},"properties":{"title":"Twinnies Cafe","marker-color":"#3698d4","marker-size":"large","marker-symbol":"restaurant"}},{"type":"Feature","geometry":{"type":"Point","coordinates":[-78.908025,36.025463]},"properties":{"title":"Brogden Middle Lunchroom","marker-color":"#3698d4","marker-size":"large","marker-symbol":"restaurant"}},{"type":"Feature","geometry":{"type":"Point","coordinates":[-78.897027,35.956016]},"properties":{"title":"Mr Ja J Pig Pen","marker-color":"#3698d4","marker-size":"large","marker-symbol":"restaurant"}},{"type":"Feature","geometry":{"type":"Point","coordinates":[-78.873781,35.986051]},"properties":{"title":"Y E Smith","marker-color":"#3698d4","marker-size":"large","marker-symbol":"restaurant"}},{"type":"Feature","geometry":{"type":"Point","coordinates":[-78.890748,36.013688]},"properties":{"title":"Kroger  R 237","marker-color":"#3698d4","marker-size":"large","marker-symbol":"restaurant"}},{"type":"Feature","geometry":{"type":"Point","coordinates":[-78.945897,36.019096]},"properties":{"title":"Kroger 332 Meat Market","marker-color":"#3698d4","marker-size":"large","marker-symbol":"restaurant"}},{"type":"Feature","geometry":{"type":"Point","coordinates":[-78.882574,35.979965]},"properties":{"title":"Peter Pan Super Mkt","marker-color":"#3698d4","marker-size":"large","marker-symbol":"restaurant"}},{"type":"Feature","geometry":{"type":"Point","coordinates":[-78.84957,35.918816]},"properties":{"title":"Food Express","marker-color":"#3698d4","marker-size":"large","marker-symbol":"restaurant"}},{"type":"Feature","geometry":{"type":"Point","coordinates":[-78.945177,36.018807]},"properties":{"title":"The Best Burrito","marker-color":"#3698d4","marker-size":"large","marker-symbol":"restaurant"}},{"type":"Feature","geometry":{"type":"Point","coordinates":[-78.888999,35.90282]},"properties":{"title":"Halgo European Grocery","marker-color":"#3698d4","marker-size":"large","marker-symbol":"restaurant"}},{"type":"Feature","geometry":{"type":"Point","coordinates":[-78.839427,35.922036]},"properties":{"title":"Stiefel Research Institute","marker-color":"#3698d4","marker-size":"large","marker-symbol":"restaurant"}},{"type":"Feature","geometry":{"type":"Point","coordinates":[-78.926391,36.029344]},"properties":{"title":"Costa Azul","marker-color":"#3698d4","marker-size":"large","marker-symbol":"restaurant"}},{"type":"Feature","geometry":{"type":"Point","coordinates":[-78.929144,36.057449]},"properties":{"title":"Harris Teeter 254 Market","marker-color":"#3698d4","marker-size":"large","marker-symbol":"restaurant"}},{"type":"Feature","geometry":{"type":"Point","coordinates":[-78.951434,36.021676]},"properties":{"title":"Pergamon Ii","marker-color":"#3698d4","marker-size":"large","marker-symbol":"restaurant"}},{"type":"Feature","geometry":{"type":"Point","coordinates":[-78.899123,35.984705]},"properties":{"title":"Island Flava","marker-color":"#3698d4","marker-size":"large","marker-symbol":"restaurant"}},{"type":"Feature","geometry":{"type":"Point","coordinates":[-78.944303,36.008767]},"properties":{"title":"Mediterra Grill","marker-color":"#3698d4","marker-size":"large","marker-symbol":"restaurant"}},{"type":"Feature","geometry":{"type":"Point","coordinates":[-78.812716,35.92841]},"properties":{"title":"Danbury Hall Food Service","marker-color":"#3698d4","marker-size":"large","marker-symbol":"restaurant"}},{"type":"Feature","geometry":{"type":"Point","coordinates":[-78.904181,35.996966]},"properties":{"title":"Sarah Cecilia's Good Food","marker-color":"#3698d4","marker-size":"large","marker-symbol":"restaurant"}},{"type":"Feature","geometry":{"type":"Point","coordinates":[-78.93949,35.901975]},"properties":{"title":"Los Portales","marker-color":"#3698d4","marker-size":"large","marker-symbol":"restaurant"}},{"type":"Feature","geometry":{"type":"Point","coordinates":[-78.850112,35.88234]},"properties":{"title":"Triangle Park Pizza","marker-color":"#3698d4","marker-size":"large","marker-symbol":"restaurant"}},{"type":"Feature","geometry":{"type":"Point","coordinates":[-78.929276,36.061563]},"properties":{"title":"Liberty Baptist Church School Lunch Room","marker-color":"#3698d4","marker-size":"large","marker-symbol":"restaurant"}},{"type":"Feature","geometry":{"type":"Point","coordinates":[-78.981679,36.032667]},"properties":{"title":"Durham Pizza Restaurant","marker-color":"#3698d4","marker-size":"large","marker-symbol":"restaurant"}},{"type":"Feature","geometry":{"type":"Point","coordinates":[-78.908859,36.016986]},"properties":{"title":"Villa Fresh Italian Kitchen","marker-color":"#3698d4","marker-size":"large","marker-symbol":"restaurant"}},{"type":"Feature","geometry":{"type":"Point","coordinates":[-78.89374,36.000391]},"properties":{"title":"Global Scholars Academy Lunchroom","marker-color":"#3698d4","marker-size":"large","marker-symbol":"restaurant"}},{"type":"Feature","geometry":{"type":"Point","coordinates":[-78.929029,36.057967]},"properties":{"title":"El Rincon","marker-color":"#3698d4","marker-size":"large","marker-symbol":"restaurant"}},{"type":"Feature","geometry":{"type":"Point","coordinates":[-78.923549,35.975107]},"properties":{"title":"Toreros #4","marker-color":"#3698d4","marker-size":"large","marker-symbol":"restaurant"}},{"type":"Feature","geometry":{"type":"Point","coordinates":[-78.845522,35.926183]},"properties":{"title":"Screaming Coyote Cafe","marker-color":"#3698d4","marker-size":"large","marker-symbol":"restaurant"}},{"type":"Feature","geometry":{"type":"Point","coordinates":[-78.969737,36.056499]},"properties":{"title":"Herrera Mfu","marker-color":"#3698d4","marker-size":"large","marker-symbol":"restaurant"}},{"type":"Feature","geometry":{"type":"Point","coordinates":[-78.983751,35.909753]},"properties":{"title":"Holiday Inn Express Breakfast Bar","marker-color":"#3698d4","marker-size":"large","marker-symbol":"restaurant"}},{"type":"Feature","geometry":{"type":"Point","coordinates":[-78.929203,36.010915]},"properties":{"title":"Destinee' Bar \u0026 Grill","marker-color":"#3698d4","marker-size":"large","marker-symbol":"restaurant"}},{"type":"Feature","geometry":{"type":"Point","coordinates":[-78.899061,35.985116]},"properties":{"title":"Gg The Taste Of Chicago Fish \u0026 Chicken","marker-color":"#3698d4","marker-size":"large","marker-symbol":"restaurant"}},{"type":"Feature","geometry":{"type":"Point","coordinates":[-78.98375,35.909771]},"properties":{"title":"Bangkok 54","marker-color":"#3698d4","marker-size":"large","marker-symbol":"restaurant"}},{"type":"Feature","geometry":{"type":"Point","coordinates":[-78.995756,35.953543]},"properties":{"title":"Walmart Deli 2137","marker-color":"#3698d4","marker-size":"large","marker-symbol":"restaurant"}},{"type":"Feature","geometry":{"type":"Point","coordinates":[-78.877703,35.982872]},"properties":{"title":"Micah Frazier Pc Dc #41","marker-color":"#3698d4","marker-size":"large","marker-symbol":"restaurant"}},{"type":"Feature","geometry":{"type":"Point","coordinates":[-78.882913,35.960166]},"properties":{"title":"Smash Hit Hot Dogs Dc #42","marker-color":"#3698d4","marker-size":"large","marker-symbol":"restaurant"}},{"type":"Feature","geometry":{"type":"Point","coordinates":[-78.841048,35.955635]},"properties":{"title":"J \u0026 J Fish \u0026 Chicken","marker-color":"#3698d4","marker-size":"large","marker-symbol":"restaurant"}},{"type":"Feature","geometry":{"type":"Point","coordinates":[-78.961464,35.968348]},"properties":{"title":"Li Ming's Global Mart (Bakery)","marker-color":"#3698d4","marker-size":"large","marker-symbol":"restaurant"}},{"type":"Feature","geometry":{"type":"Point","coordinates":[-78.908859,36.016986]},"properties":{"title":"Flamers Burgers \u0026 Chicken","marker-color":"#3698d4","marker-size":"large","marker-symbol":"restaurant"}},{"type":"Feature","geometry":{"type":"Point","coordinates":[-78.896864,35.992846]},"properties":{"title":"Tacos Hermanos","marker-color":"#3698d4","marker-size":"large","marker-symbol":"restaurant"}},{"type":"Feature","geometry":{"type":"Point","coordinates":[-78.922038,36.008775]},"properties":{"title":"Mitch's Pub And Grille","marker-color":"#3698d4","marker-size":"large","marker-symbol":"restaurant"}},{"type":"Feature","geometry":{"type":"Point","coordinates":[-78.921118,35.996694]},"properties":{"title":"Best Bread","marker-color":"#3698d4","marker-size":"large","marker-symbol":"restaurant"}},{"type":"Feature","geometry":{"type":"Point","coordinates":[-78.928692,35.920888]},"properties":{"title":"Dulce Cafe \u0026 Ice Cream","marker-color":"#3698d4","marker-size":"large","marker-symbol":"restaurant"}},{"type":"Feature","geometry":{"type":"Point","coordinates":[-78.993585,35.951061]},"properties":{"title":"Five Guys Burgers And Fries","marker-color":"#3698d4","marker-size":"large","marker-symbol":"restaurant"}},{"type":"Feature","geometry":{"type":"Point","coordinates":[-78.897983,35.995875]},"properties":{"title":"Taqueria La Esperanza Dc #2","marker-color":"#3698d4","marker-size":"large","marker-symbol":"restaurant"}},{"type":"Feature","geometry":{"type":"Point","coordinates":[-78.891612,36.034139]},"properties":{"title":"La Superior Deli / Hot Food","marker-color":"#3698d4","marker-size":"large","marker-symbol":"restaurant"}},{"type":"Feature","geometry":{"type":"Point","coordinates":[-78.915719,35.996795]},"properties":{"title":"Alan Smith","marker-color":"#3698d4","marker-size":"large","marker-symbol":"restaurant"}},{"type":"Feature","geometry":{"type":"Point","coordinates":[-78.887754,35.944873]},"properties":{"title":"La Regia Dominican Mexican Rest \u0026 Grill 55","marker-color":"#3698d4","marker-size":"large","marker-symbol":"restaurant"}},{"type":"Feature","geometry":{"type":"Point","coordinates":[-78.899024,36.002016]},"properties":{"title":"Duke Medical Center","marker-color":"#3698d4","marker-size":"large","marker-symbol":"restaurant"}},{"type":"Feature","geometry":{"type":"Point","coordinates":[-78.866177,35.989488]},"properties":{"title":"Round Up","marker-color":"#3698d4","marker-size":"large","marker-symbol":"restaurant"}},{"type":"Feature","geometry":{"type":"Point","coordinates":[-78.915719,35.996795]},"properties":{"title":"Chef Ken's Catering Llc","marker-color":"#3698d4","marker-size":"large","marker-symbol":"restaurant"}},{"type":"Feature","geometry":{"type":"Point","coordinates":[-78.898281,35.9027]},"properties":{"title":"Chick Fil A, Inc","marker-color":"#3698d4","marker-size":"large","marker-symbol":"restaurant"}},{"type":"Feature","geometry":{"type":"Point","coordinates":[-78.877703,35.982872]},"properties":{"title":"Mama Dukes  Dc #86","marker-color":"#3698d4","marker-size":"large","marker-symbol":"restaurant"}},{"type":"Feature","geometry":{"type":"Point","coordinates":[-78.885827,35.999393]},"properties":{"title":"Taqueria Gonzalez","marker-color":"#3698d4","marker-size":"large","marker-symbol":"restaurant"}},{"type":"Feature","geometry":{"type":"Point","coordinates":[-78.866839,35.972519]},"properties":{"title":"Taste Of Nola Dc #106","marker-color":"#3698d4","marker-size":"large","marker-symbol":"restaurant"}},{"type":"Feature","geometry":{"type":"Point","coordinates":[-78.915719,35.996795]},"properties":{"title":"Elizabeth Womack","marker-color":"#3698d4","marker-size":"large","marker-symbol":"restaurant"}},{"type":"Feature","geometry":{"type":"Point","coordinates":[-78.90043,35.977922]},"properties":{"title":"Ez Jack Hot Dogs Dc #125","marker-color":"#3698d4","marker-size":"large","marker-symbol":"restaurant"}},{"type":"Feature","geometry":{"type":"Point","coordinates":[-78.909258,36.000031]},"properties":{"title":"Liv's  Dc 113","marker-color":"#3698d4","marker-size":"large","marker-symbol":"restaurant"}},{"type":"Feature","geometry":{"type":"Point","coordinates":[-78.899884,35.997025]},"properties":{"title":"Stay And Play Snack Cafe","marker-color":"#3698d4","marker-size":"large","marker-symbol":"restaurant"}},{"type":"Feature","geometry":{"type":"Point","coordinates":[-78.957219,35.848262]},"properties":{"title":"Bonefish Grill","marker-color":"#3698d4","marker-size":"large","marker-symbol":"restaurant"}},{"type":"Feature","geometry":{"type":"Point","coordinates":[-78.915719,35.996795]},"properties":{"title":"Makayla's Catering Service","marker-color":"#3698d4","marker-size":"large","marker-symbol":"restaurant"}},{"type":"Feature","geometry":{"type":"Point","coordinates":[-78.866177,35.989488]},"properties":{"title":"El Portal Salvadoreno","marker-color":"#3698d4","marker-size":"large","marker-symbol":"restaurant"}},{"type":"Feature","geometry":{"type":"Point","coordinates":[-78.923778,35.990607]},"properties":{"title":"Food Simply Fresh","marker-color":"#3698d4","marker-size":"large","marker-symbol":"restaurant"}},{"type":"Feature","geometry":{"type":"Point","coordinates":[-78.908859,36.016986]},"properties":{"title":"Yamato Sushi \u0026 Grill","marker-color":"#3698d4","marker-size":"large","marker-symbol":"restaurant"}},{"type":"Feature","geometry":{"type":"Point","coordinates":[-78.922013,36.009292]},"properties":{"title":"Ninth St Bar \u0026 Grill","marker-color":"#3698d4","marker-size":"large","marker-symbol":"restaurant"}},{"type":"Feature","geometry":{"type":"Point","coordinates":[-78.871065,36.026853]},"properties":{"title":"Town \u0026 Country #1","marker-color":"#3698d4","marker-size":"large","marker-symbol":"restaurant"}},{"type":"Feature","geometry":{"type":"Point","coordinates":[-78.945802,35.967227]},"properties":{"title":"Romano's Macaroni Grill  58","marker-color":"#3698d4","marker-size":"large","marker-symbol":"restaurant"}},{"type":"Feature","geometry":{"type":"Point","coordinates":[-78.929397,36.050318]},"properties":{"title":"Burger King 216","marker-color":"#3698d4","marker-size":"large","marker-symbol":"restaurant"}},{"type":"Feature","geometry":{"type":"Point","coordinates":[-78.951434,36.021676]},"properties":{"title":"Burger King #214","marker-color":"#3698d4","marker-size":"large","marker-symbol":"restaurant"}},{"type":"Feature","geometry":{"type":"Point","coordinates":[-78.93575,36.033267]},"properties":{"title":"Cec's Frozen Yogurt","marker-color":"#3698d4","marker-size":"large","marker-symbol":"restaurant"}},{"type":"Feature","geometry":{"type":"Point","coordinates":[-78.922072,36.008307]},"properties":{"title":"Ravena's","marker-color":"#3698d4","marker-size":"large","marker-symbol":"restaurant"}},{"type":"Feature","geometry":{"type":"Point","coordinates":[-78.90043,35.977922]},"properties":{"title":"T \u0026 F Dinner Theater","marker-color":"#3698d4","marker-size":"large","marker-symbol":"restaurant"}},{"type":"Feature","geometry":{"type":"Point","coordinates":[-78.810539,35.931049]},"properties":{"title":"Strutters Road House Grille","marker-color":"#3698d4","marker-size":"large","marker-symbol":"restaurant"}},{"type":"Feature","geometry":{"type":"Point","coordinates":[-78.95507,35.968281]},"properties":{"title":"Compuchem Cafeteria","marker-color":"#3698d4","marker-size":"large","marker-symbol":"restaurant"}},{"type":"Feature","geometry":{"type":"Point","coordinates":[-78.850112,35.88234]},"properties":{"title":"Ping Pong Cafe","marker-color":"#3698d4","marker-size":"large","marker-symbol":"restaurant"}},{"type":"Feature","geometry":{"type":"Point","coordinates":[-78.944443,35.967293]},"properties":{"title":"Pipers","marker-color":"#3698d4","marker-size":"large","marker-symbol":"restaurant"}},{"type":"Feature","geometry":{"type":"Point","coordinates":[-78.924487,35.989649]},"properties":{"title":"Pizza Inn","marker-color":"#3698d4","marker-size":"large","marker-symbol":"restaurant"}},{"type":"Feature","geometry":{"type":"Point","coordinates":[-78.900157,35.988676]},"properties":{"title":"Duke Street Senior Center","marker-color":"#3698d4","marker-size":"large","marker-symbol":"restaurant"}},{"type":"Feature","geometry":{"type":"Point","coordinates":[-78.903115,36.059186]},"properties":{"title":"Quincy's  7196","marker-color":"#3698d4","marker-size":"large","marker-symbol":"restaurant"}},{"type":"Feature","geometry":{"type":"Point","coordinates":[-78.871006,35.984428]},"properties":{"title":"East Durham Senior Center","marker-color":"#3698d4","marker-size":"large","marker-symbol":"restaurant"}},{"type":"Feature","geometry":{"type":"Point","coordinates":[-78.952121,35.931014]},"properties":{"title":"Scotne's","marker-color":"#3698d4","marker-size":"large","marker-symbol":"restaurant"}},{"type":"Feature","geometry":{"type":"Point","coordinates":[-78.922092,36.007906]},"properties":{"title":"Francesca's Dessert Cafe","marker-color":"#3698d4","marker-size":"large","marker-symbol":"restaurant"}},{"type":"Feature","geometry":{"type":"Point","coordinates":[-78.909445,36.074905]},"properties":{"title":"Food Lion #57","marker-color":"#3698d4","marker-size":"large","marker-symbol":"restaurant"}},{"type":"Feature","geometry":{"type":"Point","coordinates":[-78.900978,35.965931]},"properties":{"title":"Pearson Town Grill","marker-color":"#3698d4","marker-size":"large","marker-symbol":"restaurant"}},{"type":"Feature","geometry":{"type":"Point","coordinates":[-78.890865,35.900762]},"properties":{"title":"Blimpies Subs \u0026 Salads","marker-color":"#3698d4","marker-size":"large","marker-symbol":"restaurant"}},{"type":"Feature","geometry":{"type":"Point","coordinates":[-78.831052,35.985277]},"properties":{"title":"The Grove Cafe","marker-color":"#3698d4","marker-size":"large","marker-symbol":"restaurant"}},{"type":"Feature","geometry":{"type":"Point","coordinates":[-78.945802,35.967227]},"properties":{"title":"Spinnaker's","marker-color":"#3698d4","marker-size":"large","marker-symbol":"restaurant"}},{"type":"Feature","geometry":{"type":"Point","coordinates":[-78.926502,35.98719]},"properties":{"title":"T J Hoops","marker-color":"#3698d4","marker-size":"large","marker-symbol":"restaurant"}},{"type":"Feature","geometry":{"type":"Point","coordinates":[-78.850112,35.88234]},"properties":{"title":"Triangle Park Pizza","marker-color":"#3698d4","marker-size":"large","marker-symbol":"restaurant"}},{"type":"Feature","geometry":{"type":"Point","coordinates":[-78.821005,35.98142]},"properties":{"title":"Palace Grill","marker-color":"#3698d4","marker-size":"large","marker-symbol":"restaurant"}},{"type":"Feature","geometry":{"type":"Point","coordinates":[-78.846664,35.964973]},"properties":{"title":"Dana's Beach Bingo","marker-color":"#3698d4","marker-size":"large","marker-symbol":"restaurant"}},{"type":"Feature","geometry":{"type":"Point","coordinates":[-78.936958,35.973822]},"properties":{"title":"Time Out Of Durham","marker-color":"#3698d4","marker-size":"large","marker-symbol":"restaurant"}},{"type":"Feature","geometry":{"type":"Point","coordinates":[-78.889856,36.0268]},"properties":{"title":"Touchdown Billiards","marker-color":"#3698d4","marker-size":"large","marker-symbol":"restaurant"}},{"type":"Feature","geometry":{"type":"Point","coordinates":[-78.939929,35.968162]},"properties":{"title":"Town \u0026 Country #7","marker-color":"#3698d4","marker-size":"large","marker-symbol":"restaurant"}},{"type":"Feature","geometry":{"type":"Point","coordinates":[-78.897246,35.888463]},"properties":{"title":"Town \u0026 Country #8","marker-color":"#3698d4","marker-size":"large","marker-symbol":"restaurant"}},{"type":"Feature","geometry":{"type":"Point","coordinates":[-78.908206,35.999547]},"properties":{"title":"French Quarters","marker-color":"#3698d4","marker-size":"large","marker-symbol":"restaurant"}},{"type":"Feature","geometry":{"type":"Point","coordinates":[-78.912761,35.960856]},"properties":{"title":"Burroughs Wellcome  South","marker-color":"#3698d4","marker-size":"large","marker-symbol":"restaurant"}},{"type":"Feature","geometry":{"type":"Point","coordinates":[-78.945802,35.967227]},"properties":{"title":"Hardee's Of Durham #4","marker-color":"#3698d4","marker-size":"large","marker-symbol":"restaurant"}},{"type":"Feature","geometry":{"type":"Point","coordinates":[-78.911662,35.961024]},"properties":{"title":"Harris Canteen Corp.","marker-color":"#3698d4","marker-size":"large","marker-symbol":"restaurant"}},{"type":"Feature","geometry":{"type":"Point","coordinates":[-78.899517,35.994394]},